city,city_ascii,lat,lng
Tokyo,Tokyo,35.6897,139.6922
Jakarta,Jakarta,-6.175,106.8275
Delhi,Delhi,28.61,77.23
Guangzhou,Guangzhou,23.13,113.26
Mumbai,Mumbai,19.0761,72.8775
Manila,Manila,14.5958,120.9772
Shanghai,Shanghai,31.2286,121.4747
São Paulo,Sao Paulo,-23.55,-46.6333
Seoul,Seoul,37.56,126.99
Mexico City,Mexico City,19.4333,-99.1333
Cairo,Cairo,30.0444,31.2358
New York,New York,40.6943,-73.9249
Dhaka,Dhaka,23.7639,90.3889
Beijing,Beijing,39.9067,116.3975
Kolkāta,Kolkata,22.5675,88.37
Bangkok,Bangkok,13.7525,100.4942
Shenzhen,Shenzhen,22.5415,114.0596
Moscow,Moscow,55.7558,37.6172
Buenos Aires,Buenos Aires,-34.6033,-58.3817
Lagos,Lagos,6.455,3.3841
Istanbul,Istanbul,41.0136,28.955
Karachi,Karachi,24.86,67.01
Bangalore,Bangalore,12.9789,77.5917
Ho Chi Minh City,Ho Chi Minh City,10.7756,106.7019
Ōsaka,Osaka,34.6939,135.5022
Chengdu,Chengdu,30.66,104.0633
Tehran,Tehran,35.6892,51.3889
Kinshasa,Kinshasa,-4.3219,15.3119
Rio de Janeiro,Rio de Janeiro,-22.9111,-43.2056
Chennai,Chennai,13.0825,80.275
Xi’an,Xi'an,34.2611,108.9422
Lahore,Lahore,31.5497,74.3436
Chongqing,Chongqing,29.5637,106.5504
Los Angeles,Los Angeles,34.1141,-118.4068
Baoding,Baoding,38.874,115.464
London,London,51.5072,-0.1275
Paris,Paris,48.8567,2.3522
Linyi,Linyi,35.1038,118.3564
Dongguan,Dongguan,23.021,113.752
Hyderābād,Hyderabad,17.3617,78.4747
Tianjin,Tianjin,39.1336,117.2054
Lima,Lima,-12.06,-77.0375
Wuhan,Wuhan,30.5934,114.3046
Nanyang,Nanyang,32.9987,112.5292
Hangzhou,Hangzhou,30.267,120.153
Foshan,Foshan,23.0214,113.1216
Nagoya,Nagoya,35.1833,136.9
Tongshan,Tongshan,34.204,117.284
Luanda,Luanda,-8.8383,13.2344
Zhoukou,Zhoukou,33.625,114.6418
Ganzhou,Ganzhou,25.831,114.933
Kuala Lumpur,Kuala Lumpur,3.1478,101.6953
Heze,Heze,35.2343,115.4796
Quanzhou,Quanzhou,24.8744,118.6757
Johannesburg,Johannesburg,-26.2044,28.0456
Chicago,Chicago,41.8375,-87.6866
Nanjing,Nanjing,32.0608,118.7789
Jining,Jining,35.4151,116.5871
Hanoi,Hanoi,21,105.85
Pune,Pune,18.5203,73.8567
Fuyang,Fuyang,32.89,115.814
Ahmedabad,Ahmedabad,23.0225,72.5714
Bogotá,Bogota,4.7111,-74.0722
Shenyang,Shenyang,41.8025,123.4281
Dar es Salaam,Dar es Salaam,-6.8161,39.2803
Khartoum,Khartoum,15.6,32.5
Shangqiu,Shangqiu,34.415,115.656
Hong Kong,Hong Kong,22.3,114.2
Cangzhou,Cangzhou,38.3047,116.8387
Riyadh,Riyadh,24.6333,46.7167
Santiago,Santiago,-33.4372,-70.6506
Xingtai,Xingtai,37.0717,114.5048
Zhumadian,Zhumadian,33.014,114.022
Chattogram,Chattogram,22.335,91.8325
Surabaya,Surabaya,-7.2458,112.7378
Zhanjiang,Zhanjiang,21.2701,110.3575
Bijie,Bijie,27.284,105.292
Yancheng,Yancheng,33.3482,120.1626
Hengyang,Hengyang,26.894,112.572
Zunyi,Zunyi,27.722,107.031
Shaoyang,Shaoyang,27.2395,111.4679
Sūrat,Surat,21.1702,72.8311
Shangrao,Shangrao,28.4551,117.9431
Xinyang,Xinyang,32.149,114.091
Madrid,Madrid,40.4169,-3.7033
Baghdad,Baghdad,33.3153,44.3661
Maoming,Maoming,21.6627,110.9255
Jieyang,Jieyang,23.551,116.3727
Miami,Miami,25.784,-80.2101
Singapore,Singapore,1.3,103.8
Houston,Houston,29.786,-95.3885
Liaocheng,Liaocheng,36.4559,115.9852
Huanggang,Huanggang,30.4537,114.8724
Dalian,Dalian,38.9,121.6
Dallas,Dallas,32.7935,-96.7667
Qingdao,Qingdao,36.0669,120.3827
Yulin,Yulin,22.654,110.181
Douala,Douala,4.05,9.7
Qujing,Qujing,25.491,103.796
Nangandao,Nangandao,35.3036,113.9268
Philadelphia,Philadelphia,40.0077,-75.1339
Pudong,Pudong,31.2347,121.5064
Toronto,Toronto,43.7417,-79.3733
Zhengzhou,Zhengzhou,34.764,113.684
Dezhou,Dezhou,37.436,116.359
Nanchong,Nanchong,30.8372,106.1106
Jinan,Jinan,36.6702,117.0207
Giza,Giza,29.987,31.2118
Nairobi,Nairobi,-1.2864,36.8172
Guadalajara,Guadalajara,20.6767,-103.3475
Ankara,Ankara,39.93,32.85
Tai’an,Tai'an,36.202,117.087
Langfang,Langfang,39.5383,116.6835
Dazhou,Dazhou,31.2093,107.4678
Saint Petersburg,Saint Petersburg,59.9375,30.3086
Monterrey,Monterrey,25.6667,-100.3
Belo Horizonte,Belo Horizonte,-19.9167,-43.9333
Suzhou,Suzhou,33.6333,116.9683
Yongzhou,Yongzhou,26.42,111.613
Changde,Changde,29.031,111.699
Xiangyang,Xiangyang,32.01,112.122
Rangoon,Rangoon,16.795,96.16
Atlanta,Atlanta,33.7628,-84.422
Washington,Washington,38.9047,-77.0163
Zhaotong,Zhaotong,27.338,103.717
Zhangzhou,Zhangzhou,24.513,117.647
Melbourne,Melbourne,-37.8142,144.9631
Yichun,Yichun,27.816,114.417
Bozhou,Bozhou,33.8626,115.7742
Suqian,Suqian,33.9331,118.2831
Abidjan,Abidjan,5.3167,-4.0333
Ji’an,Ji'an,27.0912,114.9668
Guilin,Guilin,25.275,110.296
Pingdingshan,Pingdingshan,33.735,113.2999
Berlin,Berlin,52.52,13.405
Alexandria,Alexandria,31.1975,29.8925
Mianyang,Mianyang,31.468,104.679
Sydney,Sydney,-33.8678,151.21
Huanglongsi,Huanglongsi,34.795,114.345
Barcelona,Barcelona,41.3828,2.1769
Yuncheng,Yuncheng,35.0267,111.007
Cape Town,Cape Town,-33.9253,18.4239
Changsha,Changsha,28.228,112.939
Jeddah,Jeddah,21.5433,39.1728
Weinan,Weinan,34.5206,109.471
Chenzhou,Chenzhou,25.77,113.016
Jiangmen,Jiangmen,22.5789,113.0815
Jiujiang,Jiujiang,29.661,115.954
Xinpu,Xinpu,34.5966,119.2214
Yibin,Yibin,28.752,104.643
Huaihua,Huaihua,27.5698,110.0016
Yangzhou,Yangzhou,32.3912,119.4363
Taizhou,Taizhou,32.4567,119.9229
Kunming,Kunming,25.0464,102.7094
Yiyang,Yiyang,28.5549,112.356
Changchun,Changchun,43.897,125.326
Lu’an,Lu'an,31.736,116.52
Jiangguanchi,Jiangguanchi,34.0244,113.8201
Meizhou,Meizhou,24.289,116.122
Ürümqi,Urumqi,43.8225,87.6125
Suzhou,Suzhou,31.3,120.6194
Boston,Boston,42.3188,-71.0852
İzmir,Izmir,38.42,27.14
Guigang,Guigang,23.112,109.599
Shantou,Shantou,23.354,116.682
Kabul,Kabul,34.5253,69.1783
Xiaoganzhan,Xiaoganzhan,30.918,113.957
Bamako,Bamako,12.6392,-8.0028
Luzhou,Luzhou,28.871,105.442
Hefei,Hefei,31.8206,117.2273
Hengshui,Hengshui,37.739,115.669
Fortaleza,Fortaleza,-3.7275,-38.5275
Anqing,Anqing,30.5318,117.1153
Liuzhou,Liuzhou,24.3264,109.4281
Zhangjiakou,Zhangjiakou,40.769,114.886
Zhaoqing,Zhaoqing,23.05,112.4667
Shijiazhuang,Shijiazhuang,38.0425,114.51
Ningbo,Ningbo,29.8603,121.6245
Qiqihar,Qiqihar,47.3549,123.9182
Phoenix,Phoenix,33.5722,-112.0892
Fuzhou,Fuzhou,27.949,116.358
Chifeng,Chifeng,42.257,118.888
Xiaoxita,Xiaoxita,30.692,111.287
Amman,Amman,31.9497,35.9328
Chuzhou,Chuzhou,32.256,118.333
Linfen,Linfen,36.088,111.519
Qingyuan,Qingyuan,23.682,113.056
Xianyang,Xianyang,34.3299,108.7088
Loudi,Loudi,27.6998,111.9944
Binzhou,Binzhou,37.383,117.971
Zhuzhou,Zhuzhou,27.829,113.133
Taiyuan,Taiyuan,37.8704,112.5497
Nanning,Nanning,22.8167,108.3275
Harbin,Harbin,45.7576,126.6409
Abuja,Abuja,9.0667,7.4833
Yokohama,Yokohama,35.4442,139.6381
Suihua,Suihua,46.654,126.969
Zaozhuang,Zaozhuang,34.8109,117.3238
Detroit,Detroit,42.3834,-83.1024
Xiamen,Xiamen,24.4796,118.0889
Neijiang,Neijiang,29.5802,105.058
Montréal,Montreal,45.5089,-73.5617
Fuzhou,Fuzhou,26.0743,119.2964
Baicheng,Baicheng,23.903,106.619
Wuhu,Wuhu,31.3526,118.4331
Yulinshi,Yulinshi,38.2858,109.7341
Medan,Medan,3.5894,98.6739
Wenzhou,Wenzhou,27.9938,120.6993
Changzhou,Changzhou,31.811,119.974
Puyang,Puyang,35.7627,115.0292
Jiaozuo,Jiaozuo,35.2157,113.2419
Nanchang,Nanchang,28.683,115.858
Seattle,Seattle,47.6211,-122.3244
Ibadan,Ibadan,7.3964,3.9167
Casablanca,Casablanca,33.5333,-7.5833
Kumasi,Kumasi,6.7,-1.625
Deyang,Deyang,31.127,104.398
Busan,Busan,35.18,129.075
Hohhot,Hohhot,40.842,111.749
Hechi,Hechi,24.693,108.085
Algiers,Algiers,36.7539,3.0589
Tangshan,Tangshan,39.6294,118.1739
Shiyan,Shiyan,32.629,110.7987
Lucknow,Lucknow,26.85,80.95
Mashhad,Mashhad,36.3264,59.5433
San Francisco,San Francisco,37.7558,-122.4449
Boankra,Boankra,6.6944,-1.4028
Dubai,Dubai,25.2631,55.2972
Anshan,Anshan,41.108,122.994
Baojishi,Baojishi,34.363,107.238
Qinzhou,Qinzhou,21.981,108.654
Guiyang,Guiyang,26.647,106.63
Bengbu,Bengbu,32.917,117.389
Bazhou,Bazhou,31.868,106.748
Suining,Suining,30.533,105.593
Wuxi,Wuxi,31.491,120.312
Kotla Qasim Khan,Kotla Qasim Khan,32.5833,73.75
Hanzhong,Hanzhong,33.0664,107.0232
Putian,Putian,25.4526,119.0078
Zhenjiang,Zhenjiang,32.188,119.424
Guang’an,Guang'an,30.4564,106.6326
Faisalabad,Faisalabad,31.4167,73.0911
Changzhi,Changzhi,36.195,113.117
Tongren,Tongren,27.7316,109.1895
Leshan,Leshan,29.552,103.766
Santa Cruz de la Sierra,Santa Cruz de la Sierra,-17.7892,-63.1975
Qinhuangdao,Qinhuangdao,39.8882,119.5202
Jaipur,Jaipur,26.9,75.8
Xinzhou,Xinzhou,38.416,112.734
Lanzhou,Lanzhou,36.0606,103.8268
Wuzhou,Wuzhou,23.4767,111.279
Athens,Athens,37.9842,23.7281
San Diego,San Diego,32.8313,-117.1222
Addis Ababa,Addis Ababa,9.03,38.74
Taichung,Taichung,24.1439,120.6794
Huainan,Huainan,32.6314,117.0194
Guatemala City,Guatemala City,14.6133,-90.5353
Kuwait City,Kuwait City,29.3697,47.9783
Budapest,Budapest,47.4925,19.0514
Qincheng,Qincheng,34.5809,105.7311
Rizhao,Rizhao,35.417,119.527
Quezon City,Quezon City,14.65,121.0475
Sanaa,Sanaa,15.3483,44.2064
Tashkent,Tashkent,41.3111,69.2797
Kyiv,Kyiv,50.45,30.5233
Meishan,Meishan,30.0771,103.8484
Incheon,Incheon,37.4833,126.6333
Birmingham,Birmingham,52.48,-1.9025
Ningde,Ningde,26.6662,119.5477
Zhongshan,Zhongshan,22.517,113.3925
Weihai,Weihai,37.5133,122.1205
Bursa,Bursa,40.1833,29.05
Minneapolis,Minneapolis,44.9635,-93.2678
Mbuji-Mayi,Mbuji-Mayi,-6.15,23.6
Haikou,Haikou,20.0186,110.3488
Tongliao,Tongliao,43.654,122.243
Chaoyang,Chaoyang,41.571,120.453
La Paz,La Paz,-16.4958,-68.1333
Pyongyang,Pyongyang,39.0167,125.7475
Tampa,Tampa,27.9945,-82.4447
Shaoguan,Shaoguan,24.811,113.597
Heyuan,Heyuan,23.7443,114.7002
Brasília,Brasilia,-15.7939,-47.8828
Omdurman,Omdurman,15.65,32.4833
Malang,Malang,-7.98,112.62
Stuttgart,Stuttgart,48.7775,9.18
Daqing,Daqing,46.589,125.104
Rome,Rome,41.8933,12.4828
Brooklyn,Brooklyn,40.6501,-73.9496
Kaohsiung,Kaohsiung,22.615,120.2975
Xiangtan,Xiangtan,27.8313,112.9454
Longyan,Longyan,25.076,117.017
Baotou,Baotou,40.6213,109.9532
Handan,Handan,36.601,114.487
Jinzhou,Jinzhou,41.129,121.148
Kanpur,Kanpur,26.4499,80.3319
Denver,Denver,39.762,-104.8758
Nanping,Nanping,26.6418,118.1774
Gāzipura,Gazipura,23.9889,90.375
Shanwei,Shanwei,22.7872,115.3756
Chaozhou,Chaozhou,23.658,116.622
Guayaquil,Guayaquil,-2.19,-79.8875
Weifang,Weifang,36.708,119.162
Huai’an,Huai'an,33.551,119.113
Zibo,Zibo,36.8138,118.055
Ankang,Ankang,32.6854,109.029
Mogadishu,Mogadishu,2.0392,45.3419
Munich,Munich,48.1375,11.575
Gulou,Gulou,26.0865,119.298
Taipei,Taipei,25.0375,121.5625
Bekasi,Bekasi,-6.2349,106.9923
Damascus,Damascus,33.5131,36.2919
Sanming,Sanming,26.2634,117.6389
Yangjiang,Yangjiang,21.857,111.983
Jiamusi,Jiamusi,46.8,130.319
Luohe,Luohe,33.583,114.0109
Medellín,Medellin,6.2308,-75.5906
Dingxi,Dingxi,35.608,104.592
Shaoxing,Shaoxing,30.0511,120.5833
Yantai,Yantai,37.4646,121.4478
Huizhou,Huizhou,23.112,114.416
Lishui,Lishui,28.468,119.923
Xuanzhou,Xuanzhou,30.939,118.759
Khowrhesht,Khowrhesht,36.205,49.6872
Mirzāpur,Mirzapur,25.146,82.569
Zigong,Zigong,29.339,104.779
Hamburg,Hamburg,53.55,10
Guangyuan,Guangyuan,32.436,105.844
Cali,Cali,3.4206,-76.5222
Huangshi,Huangshi,30.2011,115.039
Xining,Xining,36.6224,101.7804
Lusaka,Lusaka,-15.4167,28.2833
Ouagadougou,Ouagadougou,12.3686,-1.5275
Yaoundé,Yaounde,3.8667,11.5167
Zhuhai,Zhuhai,22.2716,113.5769
Huludao,Huludao,40.711,120.837
Baoshan,Baoshan,25.112,99.161
Mecca,Mecca,21.4225,39.8233
Vancouver,Vancouver,49.25,-123.1
Lianshan,Lianshan,40.7523,120.828
Beirut,Beirut,33.8983,35.5057
Salvador,Salvador,-12.9747,-38.4767
Bucharest,Bucharest,44.4325,26.1039
Longba,Longba,33.3702,104.9603
Nāgpur,Nagpur,21.1497,79.0806
Queens,Queens,40.7498,-73.7976
Jilin,Jilin,43.8519,126.5481
Tieling,Tieling,42.2237,123.726
Accra,Accra,5.55,-0.2
Yunfu,Yunfu,22.9152,112.0445
Bekasi Kota,Bekasi Kota,-6.2333,107
Daegu,Daegu,35.8717,128.6017
Ghāziābād,Ghaziabad,28.67,77.42
Luoyang,Luoyang,34.6197,112.4539
Brisbane,Brisbane,-27.4678,153.0281
Anshun,Anshun,26.2531,105.9476
Riverside,Riverside,33.9381,-117.3949
Yingkou,Yingkou,40.625,122.219
Colombo,Colombo,6.9344,79.8428
Yanjiang,Yanjiang,30.129,104.627
Baku,Baku,40.3953,49.8822
Antananarivo,Antananarivo,-18.91,47.525
Mudanjiang,Mudanjiang,44.5514,129.6329
Fukuoka,Fukuoka,33.59,130.4017
Yan’an,Yan'an,36.65,109.494
Jincheng,Jincheng,35.491,112.852
Nantong,Nantong,31.981,120.894
Lincang,Lincang,23.884,100.089
Yuxi,Yuxi,24.347,102.527
Las Vegas,Las Vegas,36.2333,-115.2654
Caracas,Caracas,10.4806,-66.9036
Tangerang,Tangerang,-6.1703,106.6403
Laibin,Laibin,23.7501,109.2212
Konya,Konya,37.8667,32.4833
Supaul,Supaul,26.126,86.605
Vienna,Vienna,48.2083,16.3725
Eşfahān,Esfahan,32.6447,51.6675
Baltimore,Baltimore,39.3051,-76.6144
Shengli,Shengli,37.434,118.6746
Dandong,Dandong,40.1167,124.3833
Qinbaling,Qinbaling,35.7278,107.64
Gaoping,Gaoping,30.7824,106.1281
Awka,Awka,6.2069,7.0678
Taizhou,Taizhou,28.6557,121.4208
Ma’anshan,Ma'anshan,31.669,118.507
Harare,Harare,-17.8292,31.0522
Perth,Perth,-31.9559,115.8606
St. Louis,St. Louis,38.6359,-90.2451
Phnom Penh,Phnom Penh,11.5694,104.9211
Depok,Depok,-6.394,106.8225
Stockholm,Stockholm,59.3294,18.0686
Puning,Puning,23.298,116.166
Huaibei,Huaibei,33.956,116.798
Kowloon,Kowloon,22.3167,114.1833
Córdoba,Cordoba,-31.4167,-64.1833
Haiphong,Haiphong,20.8651,106.6838
Zamboanga City,Zamboanga City,6.9042,122.0761
Chongzuo,Chongzuo,22.377,107.365
Rawalpindi,Rawalpindi,33.6,73.0333
Portland,Portland,45.5371,-122.65
Kano,Kano,12,8.5167
Yushan,Yushan,31.322,120.985
Havana,Havana,23.1367,-82.3589
Hezhou,Hezhou,24.4042,111.5672
Pingliang,Pingliang,35.5424,106.6649
Vadodara,Vadodara,22.3,73.2
Manaus,Manaus,-3.1189,-60.0217
Qingyang,Qingyang,24.7816,118.5517
San Antonio,San Antonio,29.4632,-98.5238
Rājkot,Rajkot,22.3,70.7833
Shangzhou,Shangzhou,33.868,109.9244
Vishākhapatnam,Vishakhapatnam,17.7042,83.2978
Sanmenxia,Sanmenxia,34.7732,111.2004
Baicheng,Baicheng,45.62,122.838
Gujranwala,Gujranwala,32.1567,74.19
Aleppo,Aleppo,36.2,37.16
Tijuana,Tijuana,32.525,-117.0333
Bamenda,Bamenda,5.9614,10.1517
Minsk,Minsk,53.9,27.5667
Indore,Indore,22.7167,75.8472
Karaj,Karaj,35.8272,50.9489
Kananga,Kananga,-5.897,22.4488
Peshawar,Peshawar,34.0144,71.5675
Sapporo,Sapporo,43.0619,141.3544
Sacramento,Sacramento,38.5677,-121.4685
Tilburg,Tilburg,51.55,5.0833
Pingxiang,Pingxiang,27.659,113.887
Ecatepec,Ecatepec,19.6097,-99.06
Almaty,Almaty,43.24,76.915
Austin,Austin,30.3005,-97.7522
Yinchuan,Yinchuan,38.485,106.225
Santos,Santos,-23.9369,-46.325
Blantyre,Blantyre,-15.7861,35.0058
Thāne,Thane,19.1972,72.9722
Orlando,Orlando,28.4773,-81.337
Tainan,Tainan,22.9833,120.1833
Xiping,Xiping,40.082,113.2981
Multan,Multan,30.1978,71.4697
Santa Cruz,Santa Cruz,-17.8,-63.1833
Port Harcourt,Port Harcourt,4.8242,7.0336
Jixi,Jixi,45.295,130.969
Fushun,Fushun,41.881,123.957
Warsaw,Warsaw,52.23,21.0111
Beihai,Beihai,21.481,109.12
Fuxin,Fuxin,42.022,121.67
Wuwei,Wuwei,37.929,102.638
Siping,Siping,43.1668,124.3506
San Juan,San Juan,18.3985,-66.061
Mersin,Mersin,36.8,34.6333
Bhopāl,Bhopal,23.2599,77.4126
Mosul,Mosul,36.34,43.13
Lubumbashi,Lubumbashi,-11.6647,27.4794
Davao,Davao,7.07,125.6
Curitiba,Curitiba,-25.4297,-49.2711
San Jose,San Jose,37.3012,-121.848
Shuyangzha,Shuyangzha,34.1299,118.7734
Adana,Adana,37,35.3213
Quito,Quito,-0.22,-78.5125
Pittsburgh,Pittsburgh,40.4397,-79.9763
Brazzaville,Brazzaville,-4.2694,15.2711
Hyderabad City,Hyderabad City,25.3792,68.3683
Diyarbakır,Diyarbakir,37.91,40.24
Indianapolis,Indianapolis,39.7771,-86.1458
Pimpri-Chinchwad,Pimpri-Chinchwad,18.6186,73.8037
Masqaţ,Masqat,23.5889,58.4083
Montevideo,Montevideo,-34.8836,-56.1819
Shuozhou,Shuozhou,39.3317,112.4329
Manhattan,Manhattan,40.7834,-73.9662
Cincinnati,Cincinnati,39.1413,-84.506
Kansas City,Kansas City,39.1238,-94.5541
Patna,Patna,25.594,85.1376
Tegucigalpa,Tegucigalpa,14.1058,-87.2047
Kampala,Kampala,0.3136,32.5811
Cleveland,Cleveland,41.4764,-81.6805
Sanzhou,Sanzhou,30.82,108.4
Changshu,Changshu,31.656,120.753
Heihe,Heihe,50.2401,127.521
Conakry,Conakry,9.5092,-13.7122
Ximeicun,Ximeicun,24.9612,118.3849
Caloocan City,Caloocan City,14.65,120.97
Masvingo,Masvingo,-20.0744,30.8328
Zhongli,Zhongli,24.965,121.2168
Novosibirsk,Novosibirsk,55.05,82.95
Bilāspur,Bilaspur,22.09,82.15
Semarang,Semarang,-6.99,110.4225
Jingdezhen,Jingdezhen,29.2917,117.1986
Ludhiāna,Ludhiana,30.91,75.85
Liaoyang,Liaoyang,41.279,123.176
Chengtangcun,Chengtangcun,35.0833,117.15
Rājshāhi,Rajshahi,24.3667,88.6
Balandougou,Balandougou,13.3558,-9.5517
Jiangyin,Jiangyin,31.839,120.295
Valencia,Valencia,39.47,-0.3764
Āgra,Agra,27.18,78.02
León de los Aldama,Leon de los Aldama,21.1167,-101.6833
Puebla,Puebla,19.0333,-98.1833
Columbus,Columbus,39.9862,-82.9855
Yopougon,Yopougon,5.3167,-4.0667
Hebi,Hebi,35.748,114.297
Shīrāz,Shiraz,29.61,52.5425
Madurai,Madurai,9.9252,78.1198
Huzhou,Huzhou,30.8925,120.0875
Tabrīz,Tabriz,38.0814,46.3006
Jamshedpur,Jamshedpur,22.7925,86.1842
Maracaibo,Maracaibo,10.6333,-71.6333
Sofia,Sofia,42.7,23.33
San José,San Jose,9.9325,-84.08
Prayagraj,Prayagraj,25.4358,81.8464
Palembang,Palembang,-2.9861,104.7556
Kawasaki,Kawasaki,35.5167,139.7
Kōbe,Kobe,34.69,135.1956
Jiaxing,Jiaxing,30.747,120.756
Kigali,Kigali,-1.9439,30.0594
Zhangjiajie,Zhangjiajie,29.117,110.479
Baiyin,Baiyin,36.5451,104.1389
Guiping,Guiping,23.4,110.0833
Lianjiang,Lianjiang,21.7333,110.2833
Jianguang,Jianguang,28.1958,115.7833
Yucheng,Yucheng,30.01,103.0415
Xushan,Xushan,30.1667,121.2333
Panama City,Panama City,8.9833,-79.5167
Nneyi-Umuleri,Nneyi-Umuleri,6.3333,6.8333
Leizhou,Leizhou,20.9143,110.0967
Gwangju,Gwangju,35.1653,126.8486
Katako-Kombe,Katako-Kombe,-3.4,24.42
Recife,Recife,-8.05,-34.9
Nāsik,Nasik,19.9975,73.7898
Valencia,Valencia,10.1833,-68
Onitsha,Onitsha,6.1667,6.7833
Abu Dhabi,Abu Dhabi,24.4667,54.3667
Zapopan,Zapopan,20.7167,-103.4
Daejeon,Daejeon,36.35,127.385
Bronx,Bronx,40.8501,-73.8662
Yekaterinburg,Yekaterinburg,56.8356,60.6128
Huazhou,Huazhou,32.688,112.087
Jinhua,Jinhua,29.079,119.647
Kyōto,Kyoto,35.0117,135.7683
Amsterdam,Amsterdam,52.3728,4.8936
Pizhou,Pizhou,34.398,117.89
Kismaayo,Kismaayo,-0.3581,42.5453
Yangshe,Yangshe,31.8767,120.556
Virginia Beach,Virginia Beach,36.7335,-76.0435
Dakar,Dakar,14.6928,-17.4467
Goiânia,Goiania,-16.6667,-49.25
Charlotte,Charlotte,35.2083,-80.8303
Rui’an,Rui'an,27.7833,120.625
Muscat,Muscat,23.6139,58.5922
Kharkiv,Kharkiv,49.9925,36.2311
Wenling,Wenling,28.3667,121.3667
Gaozhou,Gaozhou,21.9244,110.8422
Farīdābād,Faridabad,28.4211,77.3078
Medina,Medina,24.47,39.61
Khulna,Khulna,22.8167,89.55
Ulaanbaatar,Ulaanbaatar,47.9203,106.9172
Fuqing,Fuqing,25.7167,119.3833
Kayseri,Kayseri,38.7225,35.4875
Tel Aviv-Yafo,Tel Aviv-Yafo,32.08,34.78
Wuzhong,Wuzhong,37.9978,106.1986
Pingdu,Pingdu,36.7769,119.9884
Sangereng,Sangereng,-6.2889,106.7181
Yangquan,Yangquan,37.8571,113.5804
Samsun,Samsun,41.2903,36.3336
Yutan,Yutan,28.278,112.552
Copenhagen,Copenhagen,55.6761,12.5683
Helsinki,Helsinki,60.1708,24.9375
Prague,Prague,50.0875,14.4214
Milan,Milan,45.4669,9.19
Auckland,Auckland,-36.8406,174.74
Santiago,Santiago,19.4572,-70.6889
Chizhou,Chizhou,30.6654,117.4916
Makassar,Makassar,-5.1619,119.4362
Liangshi,Liangshi,27.26,111.7442
Porto Alegre,Porto Alegre,-30.0331,-51.23
Huangshan,Huangshan,29.7149,118.3376
Barranquilla,Barranquilla,10.9833,-74.8019
Al Başrah,Al Basrah,30.515,47.81
Benxi,Benxi,41.4868,123.685
Saitama,Saitama,35.8614,139.6456
Guarulhos,Guarulhos,-23.4628,-46.5328
Juárez,Juarez,31.745,-106.485
Mandalay,Mandalay,21.9831,96.0844
Xintai,Xintai,35.909,117.768
Wusong,Wusong,30.9333,117.7667
Calgary,Calgary,51.05,-114.0667
Meerut,Meerut,28.98,77.71
Yushu,Yushu,44.826,126.55
Belém,Belem,-1.4558,-48.5039
Kuaidamao,Kuaidamao,41.7283,125.9397
Huazhou,Huazhou,21.664,110.6396
Baishan,Baishan,41.944,126.4147
Adelaide,Adelaide,-34.9275,138.6
Haicheng,Haicheng,40.8824,122.6852
Milwaukee,Milwaukee,43.0642,-87.9675
Providence,Providence,41.823,-71.4187
Jacksonville,Jacksonville,30.3322,-81.6749
Yicheng,Yicheng,31.36,119.815
Cacuaco,Cacuaco,-8.8053,13.2444
Porto,Porto,41.1621,-8.622
Rosario,Rosario,-32.9575,-60.6394
Canagatan,Canagatan,18,121.8
Soweto,Soweto,-26.2678,27.8585
Bagam,Bagam,1.13,104.0531
Jabalpur,Jabalpur,23.1667,79.9333
Rucheng,Rucheng,32.246,120.591
Huaiyin,Huaiyin,33.5819,119.028
Dublin,Dublin,53.35,-6.2603
Kazan,Kazan,55.7964,49.1089
Dayan,Dayan,26.8552,100.2259
Shaoyang,Shaoyang,32.912,119.8526
Balıkesir,Balikesir,39.6333,27.8833
Comayagüela,Comayaguela,14.098,-87.21
Laiwu,Laiwu,36.1833,117.6667
Sharjah,Sharjah,25.3575,55.3908
Jingling,Jingling,30.664,113.167
Kalyān,Kalyan,19.2502,73.1602
Nizhniy Novgorod,Nizhniy Novgorod,56.3269,44.0075
Yongcheng,Yongcheng,33.9299,116.45
Sumedang,Sumedang,-6.84,107.9208
Cần Thơ,Can Tho,10.0333,105.7833
Brussels,Brussels,50.8467,4.3525
Suwon,Suwon,37.2667,127.0167
Yiwu,Yiwu,29.3069,120.0753
Beidao,Beidao,34.602,105.918
Vasai-Virar,Vasai-Virar,19.3607,72.7956
Xiangshui,Xiangshui,26.5964,104.8314
Dadukou,Dadukou,26.5824,101.7184
Campinas,Campinas,-22.9058,-47.0608
Lingcheng,Lingcheng,22.7,110.35
Shuangyashan,Shuangyashan,46.6762,131.1416
Mombasa,Mombasa,-4.05,39.6667
Najafgarh,Najafgarh,28.6092,76.9798
Xinyu,Xinyu,27.8186,114.9167
Qom,Qom,34.64,50.8764
Hargeysa,Hargeysa,9.5631,44.0675
Baidoa,Baidoa,3.1167,43.65
Zhangye,Zhangye,38.9248,100.4499
Vārānasi,Varanasi,25.3189,83.0128
Hiroshima,Hiroshima,34.3914,132.4519
Chiang Mai,Chiang Mai,18.7953,98.9986
Belgrade,Belgrade,44.82,20.46
Maiduguri,Maiduguri,11.8333,13.15
Chelyabinsk,Chelyabinsk,55.1547,61.3758
Batam Centre,Batam Centre,1.13,104.0531
Rongcheng,Rongcheng,26.218,104.103
Mbandaka,Mbandaka,0.0478,18.2558
Doha,Doha,25.2867,51.5333
Ahvāz,Ahvaz,31.3047,48.6783
Shymkent,Shymkent,42.3167,69.5958
Tripoli,Tripoli,32.8872,13.1914
Srīnagar,Srinagar,34.09,74.79
Nashville,Nashville,36.1715,-86.7842
Liaoyuan,Liaoyuan,42.888,125.1447
Aurangābād,Aurangabad,19.88,75.32
Cilacap,Cilacap,-7.7167,109.017
Salt Lake City,Salt Lake City,40.7776,-111.9311
Omsk,Omsk,54.9833,73.3667
Pikine,Pikine,14.75,-17.4
Samara,Samara,53.2028,50.1408
Guankou,Guankou,28.1637,113.6433
Bandar Lampung,Bandar Lampung,-5.45,105.2667
Raleigh,Raleigh,35.8324,-78.6429
Lianyuan,Lianyuan,27.692,111.664
Rongcheng,Rongcheng,29.8402,112.9048
Dhanbād,Dhanbad,23.7998,86.4305
Nay Pyi Taw,Nay Pyi Taw,19.7475,96.115
Aba,Aba,5.1167,7.3667
Kaiyuan,Kaiyuan,36.0193,113.86
Zhuji,Zhuji,29.7167,120.2333
Yingtan,Yingtan,28.2721,117.0395
Edmonton,Edmonton,53.5344,-113.4903
Leiyang,Leiyang,26.4223,112.8598
Ulsan,Ulsan,35.55,129.3167
Yichun,Yichun,47.728,128.841
Benin City,Benin City,6.3333,5.6222
Bujumbura,Bujumbura,-3.3833,29.3667
Guyuan,Guyuan,36.01,106.257
Xiantao,Xiantao,30.328,113.443
Rostov,Rostov,47.2225,39.71
Maputo,Maputo,-25.9667,32.5833
Bukavu,Bukavu,-2.5,28.8667
Amritsar,Amritsar,31.64,74.86
Shagamu,Shagamu,6.8333,3.65
Yingchuan,Yingchuan,34.1511,113.4733
Alīgarh,Aligarh,27.88,78.08
Santo Domingo,Santo Domingo,18.4667,-69.95
Bogor,Bogor,-6.5966,106.7972
Bishkek,Bishkek,42.8747,74.6122
Tbilisi,Tbilisi,41.7225,44.7925
Guwāhāti,Guwahati,26.1722,91.7458
Ufa,Ufa,54.7261,55.9475
Fès,Fes,34.0433,-5.0033
Mwanza,Mwanza,-2.5167,32.9
Biên Hòa,Bien Hoa,10.95,106.8167
Mexicali,Mexicali,32.6633,-115.4678
Sevilla,Sevilla,37.39,-5.99
Ikare,Ikare,7.5167,5.75
Dongtai,Dongtai,32.795,120.519
Dingzhou,Dingzhou,38.516,114.99
Xibeijie,Xibeijie,39.7334,98.4943
Tamale,Tamale,9.4075,-0.8533
Yuyao,Yuyao,30.05,121.15
Hanchuan,Hanchuan,30.652,113.8274
Gongzhuling,Gongzhuling,43.5053,124.8224
N’Djamena,N'Djamena,12.11,15.05
Ubungo,Ubungo,-6.7889,39.2056
Cologne,Cologne,50.9364,6.9528
Krasnoyarsk,Krasnoyarsk,56.0089,92.8719
Zhufeng,Zhufeng,36,119.4167
Ezhou,Ezhou,30.3914,114.8949
Astana,Astana,51.1472,71.4222
Nezahualcóyotl,Nezahualcoyotl,19.4081,-99.0186
Nouakchott,Nouakchott,18.0858,-15.9785
Hāora,Haora,22.58,88.3294
Tongjin,Tongjin,37.2333,127.2
Xiashi,Xiashi,30.5333,120.6833
Yerevan,Yerevan,40.1814,44.5144
Rānchi,Ranchi,23.36,85.33
Richmond,Richmond,37.5295,-77.4756
Ciudad Nezahualcóyotl,Ciudad Nezahualcoyotl,19.4006,-99.0148
Gwalior,Gwalior,26.2124,78.1772
Ottawa,Ottawa,45.4247,-75.695
Zhongwei,Zhongwei,37.5002,105.1968
Oslo,Oslo,59.9133,10.7389
Goyang,Goyang,37.65,126.8
Sendai,Sendai,38.2682,140.8694
Mizhou,Mizhou,35.99,119.3801
Xishan,Xishan,27.6461,113.497
Barquisimeto,Barquisimeto,10.0636,-69.3347
Hegang,Hegang,47.3501,130.298
Chandīgarh,Chandigarh,30.75,76.78
Voronezh,Voronezh,51.6717,39.2106
Managua,Managua,12.1364,-86.2514
Haldwāni,Haldwani,29.22,79.52
Vijayavāda,Vijayawada,16.5193,80.6305
Perm,Perm,58,56.3167
Fangchenggang,Fangchenggang,21.6867,108.3547
Jiancheng,Jiancheng,30.3931,104.5465
Cazenga,Cazenga,-8.8214,13.2911
Kisangani,Kisangani,0.5167,25.2
Shouguang,Shouguang,36.857,118.791
Memphis,Memphis,35.1087,-89.9663
São Luís,Sao Luis,-2.5283,-44.3044
Jodhpur,Jodhpur,26.28,73.02
Matola,Matola,-25.9667,32.4667
Ogbomoso,Ogbomoso,8.1333,4.25
Sanya,Sanya,18.2533,109.5036
Rangapukur,Rangapukur,25.56,89.25
Ashgabat,Ashgabat,37.9375,58.38
Wutong,Wutong,30.6333,120.5333
Linhai,Linhai,28.85,121.1167
Denizli,Denizli,37.7833,29.0964
Niamey,Niamey,13.515,2.1175
Shubrā al Khaymah,Shubra al Khaymah,30.1286,31.2422
Wafangdian,Wafangdian,39.6271,121.9796
Zhongxiang,Zhongxiang,31.169,112.5853
Monrovia,Monrovia,6.3133,-10.8014
San Cristóbal,San Cristobal,7.7667,-72.2333
Islamabad,Islamabad,33.6931,73.0639
Xinyi,Xinyi,22.3549,110.9468
Thủ Đức,Thu Duc,10.8266,106.7609
Morelia,Morelia,19.7683,-101.1894
Odesa,Odesa,46.4775,30.7326
Raipur,Raipur,21.2444,81.6306
Changwon,Changwon,35.2708,128.6631
Arequipa,Arequipa,-16.4,-71.5333
Volgograd,Volgograd,48.7086,44.5147
Zaoyang,Zaoyang,32.129,112.772
Xingyi,Xingyi,25.092,104.8955
Shuizhai,Shuizhai,33.4433,114.8994
Kota,Kota,25.18,75.83
Quetta,Quetta,30.1833,67
Quảng Hà,Quang Ha,15.9333,108.2667
Domaa-Ahenkro,Domaa-Ahenkro,7.2833,-2.8833
Bareilly,Bareilly,28.364,79.415
Oklahoma City,Oklahoma City,35.4676,-97.5136
Bordeaux,Bordeaux,44.84,-0.58
Xingcheng,Xingcheng,24.1347,115.73
Taixing,Taixing,32.159,120.029
Xinhualu,Xinhualu,34.3964,113.7402
Lilongwe,Lilongwe,-13.9833,33.7833
Port-au-Prince,Port-au-Prince,18.5333,-72.3333
Yingcheng,Yingcheng,24.21,113.401
Al Mijlad,Al Mijlad,11.0339,27.74
Luocheng,Luocheng,22.7689,111.5697
Pekanbaru,Pekanbaru,0.5092,101.4453
Natal,Natal,-6.9838,-60.2699
Chiba,Chiba,35.6073,140.1064
Kirkuk,Kirkuk,35.4667,44.3167
Hartford,Hartford,41.7661,-72.6834
Huilong,Huilong,31.87,121.703
Wuchuan,Wuchuan,21.441,110.779
Dnipro,Dnipro,48.4675,35.04
Nārāyanganj,Narayanganj,23.62,90.5
Gqeberha,Gqeberha,-33.9581,25.6
Málaga,Malaga,36.7194,-4.42
Marrakech,Marrakech,31.63,-8.0089
Cebu City,Cebu City,10.32,123.75
Louisville,Louisville,38.1663,-85.6485
Asmara,Asmara,15.3228,38.925
Coimbatore,Coimbatore,11.0167,76.9556
Maceió,Maceio,-9.6658,-35.735
Nada,Nada,19.5209,109.5808
Taishan,Taishan,22.2486,112.785
Teresina,Teresina,-5.0949,-42.8042
Solāpur,Solapur,17.68,75.92
Freetown,Freetown,8.4844,-13.2344
Santo Domingo Este,Santo Domingo Este,18.4855,-69.8734
Krasnodar,Krasnodar,45.0333,38.9667
Vientiane,Vientiane,17.98,102.63
Tangier,Tangier,35.7767,-5.8039
Anqiu,Anqiu,36.478,119.219
Kermānshāh,Kermanshah,34.3325,47.0933
Feicheng,Feicheng,36.1861,116.7719
Kibanseke Première,Kibanseke Premiere,-4.4419,15.395
Seberang Jaya,Seberang Jaya,5.4083,100.3695
Buffalo,Buffalo,42.9018,-78.8487
Hubli,Hubli,15.3502,75.1376
El Alto,El Alto,-16.5047,-68.1633
Çankaya,Cankaya,39.9244,32.8856
Hwasu-dong,Hwasu-dong,37.1997,126.8314
Setagaya,Setagaya,35.6466,139.6532
Keçiören,Kecioren,40,32.8667
Jerusalem,Jerusalem,31.7789,35.2256
Khartoum North,Khartoum North,15.6333,32.6333
Meishan,Meishan,34.1736,112.839
Mushin,Mushin,6.5333,3.35
Trujillo,Trujillo,-8.112,-79.0288
Kitakyūshū,Kitakyushu,33.8833,130.8833
Aguascalientes,Aguascalientes,21.876,-102.296
New Orleans,New Orleans,30.0687,-89.9288
Fort Worth,Fort Worth,32.7817,-97.3474
Taihe,Taihe,30.8706,105.3784
Riga,Riga,56.9489,24.1064
Xin’an,Xin'an,34.286,118.355
Taihecun,Taihecun,45.771,131.003
Kashgar,Kashgar,39.4681,75.9938
Sŏngnam,Songnam,37.4333,127.15
Trichinopoly,Trichinopoly,10.7903,78.7047
Cartagena,Cartagena,10.4,-75.5
Qingzhou,Qingzhou,36.6853,118.4796
Naples,Naples,40.8333,14.25
Santiago del Estero,Santiago del Estero,-27.7833,-64.2667
Naucalpan de Juárez,Naucalpan de Juarez,19.4753,-99.2378
Daye,Daye,30.0961,114.9804
Hengzhou,Hengzhou,22.6799,109.2614
Padang,Padang,-0.95,100.3531
Bridgeport,Bridgeport,41.1918,-73.1954
Owerri,Owerri,5.485,7.035
Zhuanghe,Zhuanghe,39.681,122.967
Bobo-Dioulasso,Bobo-Dioulasso,11.1833,-4.2833
Ad Dammām,Ad Dammam,26.4333,50.1
Quzhou,Quzhou,28.9702,118.8593
Donetsk,Donetsk,48.0028,37.8053
Ashmūn,Ashmun,30.2941,31.0342
Bunia,Bunia,1.5667,30.25
Jiaozhou,Jiaozhou,36.2647,120.0334
Campo Grande,Campo Grande,-20.4839,-54.615
Wuchang,Wuchang,44.924,127.158
São Gonçalo,Sao Goncalo,-22.8269,-43.0539
Bucaramanga,Bucaramanga,7.1333,-73
Mérida,Merida,20.97,-89.62
Yangchun,Yangchun,22.1704,111.7916
Osmangazi,Osmangazi,40.1983,29.06
Esenyurt,Esenyurt,41.0342,28.68
Morādābād,Moradabad,28.8319,78.7764
Bangui,Bangui,4.3733,18.5628
Abeokuta,Abeokuta,7.1608,3.3483
Cancún,Cancun,21.1606,-86.8475
Antipolo,Antipolo,14.5842,121.1763
Dengtalu,Dengtalu,36.1386,114.1066
Taguig City,Taguig City,14.52,121.05
Tabūk,Tabuk,28.3972,36.5789
Zhoushan,Zhoushan,29.9856,122.2074
Tucson,Tucson,32.1541,-110.8787
As Sulaymānīyah,As Sulaymaniyah,35.5572,45.4356
Chihuahua,Chihuahua,28.6369,-106.0769
Klang,Klang,3.0333,101.45
Tiruppūr,Tiruppur,11.1085,77.3411
Gurgaon,Gurgaon,28.456,77.029
Ar Ramādī,Ar Ramadi,33.4258,43.2992
Hai’an,Hai'an,32.535,120.563
Laiyang,Laiyang,36.9758,120.7136
Barinas,Barinas,8.6333,-70.2
Jalandhar,Jalandhar,31.2569,75.4432
Marseille,Marseille,43.2964,5.37
Kaifeng Chengguanzhen,Kaifeng Chengguanzhen,34.8519,114.3481
Eskişehir,Eskisehir,39.7767,30.5206
Gaomi,Gaomi,36.3833,119.75
Lhasa,Lhasa,29.6534,91.1719
Ipoh,Ipoh,4.5972,101.075
El Paso,El Paso,31.8476,-106.43
Saltillo,Saltillo,25.4231,-100.9919
Dushanbe,Dushanbe,38.5367,68.78
Ikeja,Ikeja,6.6,3.35
El Dorado,El Dorado,24.808,-107.397
Cochabamba,Cochabamba,-17.3883,-66.1597
Portsmouth,Portsmouth,50.8058,-1.0872
Tyumen,Tyumen,57.15,65.5333
Southampton,Southampton,50.9025,-1.4042
Hermosillo,Hermosillo,29.0989,-110.9542
Wuxi,Wuxi,26.58,111.841
Leping,Leping,28.978,117.152
Cheongju,Cheongju,36.6333,127.4833
Shache,Shache,38.4261,77.25
Sale,Sale,34.0333,-6.8
Hailun,Hailun,47.4667,126.9667
Macheng,Macheng,31.173,115.008
Akure,Akure,7.25,5.195
Ilorin,Ilorin,8.5,4.55
Erbil,Erbil,36.1912,44.0092
Kathmandu,Kathmandu,27.71,85.32
Saratov,Saratov,51.5333,46.0167
Iguaçu,Iguacu,-22.74,-43.47
Zijinglu,Zijinglu,34.7667,112.9667
Turin,Turin,45.0792,7.6761
Yuci,Yuci,37.6823,112.7281
Dehui,Dehui,44.535,125.703
Pietermaritzburg,Pietermaritzburg,-29.6167,30.3833
Durban,Durban,-29.8833,31.05
Bhubaneshwar,Bhubaneshwar,20.2644,85.8281
Denpasar,Denpasar,-8.65,115.2167
Tongchuan,Tongchuan,34.897,108.945
João Pessoa,Joao Pessoa,-7.12,-34.88
Samarinda,Samarinda,-0.5,117.1378
Chengxiang,Chengxiang,31.564,121.174
Rongjiawan,Rongjiawan,29.1409,113.1087
Weichanglu,Weichanglu,37.1792,119.9333
Sakai,Sakai,34.5733,135.4831
Renqiu,Renqiu,38.686,116.084
Omaha,Omaha,41.2627,-96.0529
Xindi,Xindi,29.827,113.476
Wu’an,Wu'an,36.697,114.204
Qingping,Qingping,34.539,113.391
Gaoyou,Gaoyou,32.7847,119.4432
São Bernardo do Campo,Sao Bernardo do Campo,-23.7,-46.55
Yiyang,Yiyang,26.4221,112.3999
Hejian,Hejian,38.4466,116.0995
Puxi,Puxi,35.2125,114.735
Bhayandar,Bhayandar,19.29,72.85
Androtsy,Androtsy,-24.1,46.3
Culiacán,Culiacan,24.8069,-107.3939
Cúcuta,Cucuta,7.8942,-72.5039
Danyang,Danyang,32,119.586
Dongyang,Dongyang,29.2667,120.2167
Kraków,Krakow,50.0614,19.9372
Pasig City,Pasig City,14.5605,121.0765
Thessaloníki,Thessaloniki,40.6403,22.9347
Querétaro,Queretaro,20.5875,-100.3928
Palermo,Palermo,2.8917,-75.4375
Xigazê,Xigaze,29.25,88.8833
Qamdo,Qamdo,31.143,97.17
McAllen,McAllen,26.2252,-98.2467
Libreville,Libreville,0.3903,9.4542
Seyhan,Seyhan,36.9831,35.3328
San Pedro Sula,San Pedro Sula,15.5,-88.0333
Niigata,Niigata,37.9161,139.0364
Hempstead,Hempstead,40.6629,-73.6089
Leeds,Leeds,53.7975,-1.5436
Hamamatsu,Hamamatsu,34.7108,137.7275
Pointe-Noire,Pointe-Noire,-4.7975,11.8503
Xiangxiang,Xiangxiang,27.7186,112.5502
Birmingham,Birmingham,33.5279,-86.7971
Chaohucun,Chaohucun,31.6244,117.8902
Bucheon,Bucheon,37.5,126.7833
Lubango,Lubango,-14.9167,13.5
Homs,Homs,34.7308,36.7094
Bilbao,Bilbao,43.2569,-2.9236
Zouping,Zouping,36.863,117.743
Frankfurt,Frankfurt,50.1106,8.6822
San Luis Potosí,San Luis Potosi,22.1511,-100.9761
Dali,Dali,25.6065,100.2676
Fuyang,Fuyang,30.0553,119.95
Khŭjand,Khujand,40.2833,69.6333
Korla,Korla,41.7259,86.1746
Albuquerque,Albuquerque,35.1054,-106.6465
Hamhŭng,Hamhung,39.9167,127.5333
Erzurum,Erzurum,39.9086,41.2769
Zagreb,Zagreb,45.8131,15.9775
Al ‘Ayn,Al `Ayn,24.2075,55.7447
Songzi,Songzi,30.174,111.757
Patiāla,Patiala,30.34,76.38
Laixi,Laixi,36.8667,120.5333
Zhongba,Zhongba,31.771,104.755
Bahawalpur,Bahawalpur,29.3956,71.6836
Qingnian,Qingnian,36.8494,115.7061
Kaduna,Kaduna,10.5167,7.4333
Winnipeg,Winnipeg,49.8844,-97.1464
Trabzon,Trabzon,41.005,39.7225
Guangshui,Guangshui,31.617,113.826
Baardheere,Baardheere,2.3333,42.2833
Shīshgarh,Shishgarh,28.72,79.32
Nerima,Nerima,35.7356,139.6517
Sizhan,Sizhan,38.9846,106.3828
Ciudad Guayana,Ciudad Guayana,8.3667,-62.65
Natal,Natal,-5.7833,-35.2
Lichuan,Lichuan,30.291,108.9364
Licheng,Licheng,31.4306,119.4788
Santo André,Santo Andre,-23.6572,-46.5333
Ōta-ku,Ota-ku,35.5614,139.7161
Gaalkacyo,Gaalkacyo,6.7697,47.4308
Thiruvananthapuram,Thiruvananthapuram,8.5241,76.9366
Osasco,Osasco,-23.5328,-46.7919
Nampula,Nampula,-15.1167,39.2667
Pretoria,Pretoria,-25.7461,28.1881
Kyaukse,Kyaukse,21.6131,96.1303
Chengguan,Chengguan,35.4623,113.8054
Nehe,Nehe,48.4833,124.8833
Cabinda,Cabinda,-5.56,12.19
Kumamoto,Kumamoto,32.8031,130.7078
Kermān,Kerman,30.2911,57.0678
Zunhua,Zunhua,40.189,117.966
Orūmīyeh,Orumiyeh,37.5439,45.0647
Wugang,Wugang,26.7266,110.6319
Bağcılar,Bagcilar,41.0344,28.8564
Quebec City,Quebec City,46.8139,-71.2081
Shuangqiao,Shuangqiao,35.067,112.602
Umraniye,Umraniye,41.0311,29.1081
Yanggok,Yanggok,37.6333,127.2167
Tshikapa,Tshikapa,-6.4167,20.8
Tulsa,Tulsa,36.1283,-95.9042
Osogbo,Osogbo,7.7667,4.5667
Comodoro Rivadavia,Comodoro Rivadavia,-45.8647,-67.4808
Nottingham,Nottingham,52.9561,-1.1512
Hamilton,Hamilton,43.2567,-79.8692
Langzhong,Langzhong,31.558,106.005
Cagayan de Oro,Cagayan de Oro,8.48,124.65
Qian’an,Qian'an,39.999,118.701
Fresno,Fresno,36.783,-119.7939
An Najaf,An Najaf,32,44.33
Cencheng,Cencheng,22.9167,111
Sorocaba,Sorocaba,-23.5017,-47.4581
Guli,Guli,28.9,120.0333
Sagamihara,Sagamihara,35.5667,139.3667
Pīshbar,Pishbar,33.3886,59.9789
Okayama,Okayama,34.65,133.9167
Anlu,Anlu,31.2667,113.6667
Concepción,Concepcion,-36.8282,-73.0514
Mississauga,Mississauga,43.6,-79.65
Changsha,Changsha,22.3773,112.6982
Songyang,Songyang,34.4553,113.0253
Lviv,Lviv,49.8425,24.0322
Shihezi,Shihezi,44.3054,86.0804
Vilnius,Vilnius,54.6872,25.28
Marka,Marka,1.7133,44.7656
Enugu,Enugu,6.4528,7.5111
Valenzuela,Valenzuela,14.7,120.98
Yatou,Yatou,37.1653,122.4867
Uberlândia,Uberlandia,-18.9231,-48.2886
Xichang,Xichang,27.8944,102.2644
Zaporizhzhia,Zaporizhzhia,47.85,35.1175
Bhiwandi,Bhiwandi,19.2967,73.0631
George Town,George Town,5.4144,100.3292
Bristol,Bristol,51.4536,-2.5975
Charleston,Charleston,32.8168,-79.9687
Sahāranpur,Saharanpur,29.964,77.546
Dashiqiao,Dashiqiao,40.6167,122.5167
Yenimahalle,Yenimahalle,39.9719,32.8119
Warangal,Warangal,17.9689,79.5941
Nampo,Nampo,38.7333,125.4
Dasmariñas,Dasmarinas,14.33,120.94
Jaboatão,Jaboatao,-8.1803,-35.0014
Chisinau,Chisinau,47.0228,28.8353
Shiliguri,Shiliguri,26.71,88.43
Boosaaso,Boosaaso,11.2886,49.1819
Port Moresby,Port Moresby,-9.4789,147.1494
Latakia,Latakia,35.5167,35.7833
Rochester,Rochester,43.168,-77.6162
Ribeirão Prêto,Ribeirao Preto,-21.1783,-47.8067
Edogawa,Edogawa,35.7,139.8833
São José dos Campos,Sao Jose dos Campos,-23.1789,-45.8869
General Santos,General Santos,6.12,125.17
Ḩamāh,Hamah,35.1333,36.75
Qianxi,Qianxi,27.0087,106.0323
Bauchi,Bauchi,10.3158,9.8442
Pendik,Pendik,40.8747,29.235
Salem,Salem,11.65,78.15
Shishi,Shishi,24.7167,118.7
Sinnūris,Sinnuris,29.4072,30.8667
Cocody,Cocody,5.35,-3.9667
Miluo Chengguanzhen,Miluo Chengguanzhen,28.761,113.16
Lokoja,Lokoja,7.8019,6.7442
Guadalupe,Guadalupe,25.6775,-100.2597
Gaizhou,Gaizhou,40.4,122.35
Karbalā’,Karbala',32.6167,44.0333
Borvāyeh-ye Al Bū ‘Azīz,Borvayeh-ye Al Bu `Aziz,31.6283,48.6147
City of Parañaque,City of Paranaque,14.5008,120.9915
Leling,Leling,37.73,117.232
Mamak,Mamak,39.9422,32.9231
Jianshe,Jianshe,34.2137,113.7629
Tolyatti,Tolyatti,53.5089,49.4222
Shizuoka,Shizuoka,34.9756,138.3828
Jingcheng,Jingcheng,32.009,120.263
Agege,Agege,6.6219,3.3258
Mar del Plata,Mar del Plata,-38,-57.55
Zaragoza,Zaragoza,41.65,-0.8833
Adachi,Adachi,35.7833,139.8
Xinmin,Xinmin,41.997,122.823
Rasht,Rasht,37.2744,49.5889
Shanhu,Shanhu,29.6,120.8167
Zhongshu,Zhongshu,27.7919,106.4013
Cotonou,Cotonou,6.3667,2.4333
Tasikmalaya,Tasikmalaya,-7.3161,108.1975
Kochi,Kochi,9.9312,76.2673
Soledad,Soledad,10.9167,-74.75
Dhūlia,Dhulia,20.8997,74.7697
Acapulco de Juárez,Acapulco de Juarez,16.8636,-99.8825
Gorakhpur,Gorakhpur,26.7637,83.4039
Bahār,Bahar,34.9028,48.4425
Kumul,Kumul,42.8193,93.5151
Wrocław,Wroclaw,51.11,17.0325
Murcia,Murcia,37.9861,-1.1303
Pinghu,Pinghu,30.7005,121.0104
Guankou,Guankou,30.988,103.647
Łódź,Lodz,51.7769,19.4547
Guntūr,Guntur,16.3008,80.4428
Bhāngar,Bhangar,22.58,88.42
Dayton,Dayton,39.7805,-84.2003
Ch’ŏngjin,Ch'ongjin,41.7833,129.7667
Qionghu,Qionghu,28.945,112.598
Zhaodong,Zhaodong,46.051,125.962
Puyang Chengguanzhen,Puyang Chengguanzhen,35.7004,114.98
Bulawayo,Bulawayo,-20.17,28.58
Huambo,Huambo,-12.7767,15.7347
Aracaju,Aracaju,-10.9167,-37.05
Bacoor,Bacoor,14.4624,120.9645
Wenchang,Wenchang,31.054,116.9507
Rotterdam,Rotterdam,51.92,4.48
Tlaquepaque,Tlaquepaque,20.6167,-103.3167
Villavicencio,Villavicencio,4.15,-73.6333
Shulan,Shulan,44.4059,126.9655
Makhachkala,Makhachkala,42.9667,47.4833
Banjarmasin,Banjarmasin,-3.32,114.5925
Narela,Narela,28.8527,77.0929
Catia La Mar,Catia La Mar,10.6,-67.0333
Al Hufūf,Al Hufuf,25.3833,49.5833
Jalingo,Jalingo,8.9,11.3667
Sargodha,Sargodha,32.0836,72.6711
Karaikandi,Karaikandi,24.8309,92.6143
Bouaké,Bouake,7.6833,-5.0167
Lingbao Chengguanzhen,Lingbao Chengguanzhen,34.5176,110.8942
Brampton,Brampton,43.6833,-79.7667
Abomey-Calavi,Abomey-Calavi,6.4486,2.3556
Durango,Durango,24.025,-104.6675
Cape Coral,Cape Coral,26.6443,-81.9957
Tondo,Tondo,14.617,120.967
Dayrūţ,Dayrut,27.5667,30.8167
Tlalnepantla,Tlalnepantla,19.5367,-99.1947
Ansan,Ansan,37.3167,126.8333
Xiping,Xiping,25.6005,103.8166
Huế,Hue,16.4667,107.5792
Sanhe,Sanhe,40.0167,117.0833
San Jose del Monte,San Jose del Monte,14.8139,121.0453
Ch’ŏnan,Ch'onan,36.81,127.1475
Cuiabá,Cuiaba,-15.5958,-56.0969
Jieshou,Jieshou,33.257,115.3746
Ērer Sātā,Erer Sata,9.5667,41.3833
Selçuklu,Selcuklu,37.8814,32.4922
Suohe,Suohe,34.7833,113.35
Guixi,Guixi,28.2925,117.2454
Izhevsk,Izhevsk,56.8333,53.1833
Honchō,Honcho,35.6946,139.9826
Wuxue,Wuxue,29.844,115.561
Jaboatão dos Guararapes,Jaboatao dos Guararapes,-8.1122,-35.0156
Yıldırım,Yildirim,40.11,29.0821
Bhāvnagar,Bhavnagar,21.76,72.15
Jinghong,Jinghong,22.009,100.797
Tengyue,Tengyue,25.0167,98.4833
Mission Viejo,Mission Viejo,33.6096,-117.6551
Ruiming,Ruiming,25.886,116.027
Qufu,Qufu,35.5819,116.9862
Sha Tin,Sha Tin,22.3802,114.1898
Petaling Jaya,Petaling Jaya,3.0972,101.6444
Colorado Springs,Colorado Springs,38.8674,-104.7605
Noida,Noida,28.57,77.32
Xinshi,Xinshi,31.1333,113.1167
Baton Rouge,Baton Rouge,30.442,-91.1311
Manama,Manama,26.225,50.5775
Las Palmas,Las Palmas,28.1258,-15.4353
Chak Forty-one,Chak Forty-one,31.0167,73.85
Jin’e,Jin'e,29.3394,105.2875
Benghazi,Benghazi,32.1167,20.0667
Chuxiong,Chuxiong,25.033,101.5459
Barnaul,Barnaul,53.3486,83.7764
Palermo,Palermo,38.1111,13.3517
Makati City,Makati City,14.5567,121.0214
Düsseldorf,Dusseldorf,51.2333,6.7833
Allentown,Allentown,40.5961,-75.4756
Xinxing,Xinxing,39.8667,124.15
Ţūkh,Tukh,30.3539,31.2007
Glasgow,Glasgow,55.8611,-4.25
Namangan,Namangan,41.0011,71.6683
Bazal’tove,Bazal'tove,50.6765,26.16
Al Qaţīf,Al Qatif,26.556,49.996
Bhilai,Bhilai,21.21,81.38
Ulyanovsk,Ulyanovsk,54.3167,48.3667
Mangalore,Mangalore,12.8681,74.8425
Kaihua,Kaihua,23.387,104.233
Irkutsk,Irkutsk,52.2833,104.2833
Meilan,Meilan,19.999,110.403
Bazhou,Bazhou,39.1333,116.3833
Ogden,Ogden,41.2279,-111.9682
Turpan,Turpan,42.9512,89.1895
Jos,Jos,9.9167,8.8903
Al Manşūrah,Al Mansurah,31.05,31.3833
Contagem,Contagem,-19.9319,-44.0539
Jambi,Jambi,-1.59,103.61
Ḩalwān,Halwan,29.8453,31.3333
Provo,Provo,40.2457,-111.6457
Tân An,Tan An,10.905,106.6994
Port-Bouët,Port-Bouet,5.2667,-3.9
Pontianak,Pontianak,-0.0206,109.3414
Meihekou,Meihekou,42.5407,125.7107
Jurong,Jurong,31.946,119.164
Bihtā,Bihta,25.5619,84.87
Yuhuan,Yuhuan,28.1277,121.2288
Joinvile,Joinvile,-26.3204,-48.8437
Feira de Santana,Feira de Santana,-12.25,-38.95
Khabarovsk,Khabarovsk,48.4833,135.0833
Leipzig,Leipzig,51.34,12.375
Xinji,Xinji,37.943,115.218
Knoxville,Knoxville,35.9692,-83.9496
Ta‘izz,Ta`izz,13.5789,44.0219
Etimesgut,Etimesgut,39.9458,32.6694
Changping,Changping,40.2248,116.1944
Tallinn,Tallinn,59.4372,24.7453
Chimalhuacán,Chimalhuacan,19.4167,-98.9
Kandahār,Kandahar,31.62,65.7158
Serang,Serang,-6.12,106.1503
Zhangshu,Zhangshu,28.0546,115.5462
Grand Rapids,Grand Rapids,42.9619,-85.6562
Yukarıkaraman,Yukarikaraman,36.9167,30.6833
Gothenburg,Gothenburg,57.7075,11.9675
Kuantan,Kuantan,3.8167,103.3333
Gold Coast,Gold Coast,-28.0167,153.4
Kawaguchi,Kawaguchi,35.8077,139.7241
Las Piñas City,Las Pinas City,14.45,120.98
Cuttack,Cuttack,20.5236,85.7881
San Miguel de Tucumán,San Miguel de Tucuman,-26.8167,-65.2167
Ar Rayyān,Ar Rayyan,25.25,51.4
Salīmpur,Salimpur,26.3,83.9167
Malanje,Malanje,-9.5333,16.35
Columbia,Columbia,34.0378,-80.9036
Kryvyi Rih,Kryvyi Rih,47.91,33.39
Djibouti,Djibouti,11.5883,43.145
Zhuozhou,Zhuozhou,39.485,115.974
Tianchang,Tianchang,32.6811,119.0137
Tunis,Tunis,36.8064,10.1817
Yaroslavl,Yaroslavl,57.6167,39.85
Bacolod,Bacolod,10.6765,122.9509
Garoua,Garoua,9.3,13.4
Bafoussam,Bafoussam,5.4667,10.4167
Haifa,Haifa,32.8192,34.9992
Raurkela,Raurkela,22.2492,84.8828
Tumkūr,Tumkur,13.34,77.1
Balikpapan,Balikpapan,-1.2768,116.8277
Somolu,Somolu,6.5408,3.3872
Vladivostok,Vladivostok,43.1333,131.9
Al Ḩillah,Al Hillah,23.4895,46.7564
Melikgazi,Melikgazi,38.7167,35.5
Kagoshima,Kagoshima,31.6,130.55
Sihui,Sihui,23.3265,112.7338
Dortmund,Dortmund,51.5139,7.4653
Irapuato,Irapuato,20.6667,-101.35
Al Maḩallah al Kubrá,Al Mahallah al Kubra,30.9686,31.1636
Sialkot City,Sialkot City,32.4925,74.5311
Luocheng,Luocheng,30.99,104.25
Albany,Albany,42.6664,-73.7987
Pereira,Pereira,4.8143,-75.6946
Gaza,Gaza,31.5069,34.456
Uvira,Uvira,-3.4,29.15
Reynosa,Reynosa,26.0922,-98.2778
Zāhedān,Zahedan,29.5025,60.8558
Cimahi,Cimahi,-6.8712,107.5548
Mbale,Mbale,1.0806,34.175
Wenlan,Wenlan,23.3961,103.3649
Shangzhi,Shangzhi,45.2116,127.962
Essen,Essen,51.4508,7.0131
Itabashi,Itabashi,35.7667,139.6833
Shah Alam,Shah Alam,3.0722,101.5167
Botou,Botou,38.0833,116.5833
Suginami-ku,Suginami-ku,35.6994,139.6364
Tenkāsi,Tenkasi,8.9564,77.3152
Kingston,Kingston,17.9714,-76.7931
Al Mafraq,Al Mafraq,32.3399,36.2052
Aţ Ţā’if,At Ta'if,21.2751,40.4062
Port Sudan,Port Sudan,19.6167,37.2167
Tuxtla,Tuxtla,16.7528,-93.1167
Dehra Dūn,Dehra Dun,30.345,78.029
Xiulin,Xiulin,29.7209,112.4254
Fu’an,Fu'an,27.1,119.6333
Mymensingh,Mymensingh,24.7539,90.4031
Hachiōji,Hachioji,35.6664,139.316
Iloilo,Iloilo,10.72,122.57
Puente Alto,Puente Alto,-33.6167,-70.5667
Tomsk,Tomsk,56.5,84.9667
Rabat,Rabat,34.0209,-6.8416
Sincan,Sincan,39.9594,32.5767
Bakersfield,Bakersfield,35.3529,-119.0359
Kottayam,Kottayam,9.5916,76.5222
Luofeng,Luofeng,37.359,120.396
Shibīn al Qanāţir,Shibin al Qanatir,30.3133,31.3214
Nakuru,Nakuru,-0.3,36.0667
Lingyuan,Lingyuan,41.25,119.4
Tonalá,Tonala,20.6167,-103.2333
Bremen,Bremen,53.0758,8.8072
Abū Ḩummuş,Abu Hummus,31.1006,30.3128
Irbid,Irbid,32.55,35.85
Macau,Macau,22.2006,113.5461
Surrey,Surrey,49.19,-122.8489
Ciudad Bolívar,Ciudad Bolivar,8.1219,-63.55
Durgāpur,Durgapur,23.55,87.32
Shenzhou,Shenzhou,38.002,115.56
New Haven,New Haven,41.3113,-72.9246
Orenburg,Orenburg,51.7833,55.1
Kuiju,Kuiju,36.8667,119.4
Zhenzhou,Zhenzhou,32.2723,119.1848
Āsansol,Asansol,23.68,86.99
Bokaro Steel City,Bokaro Steel City,23.67,86.15
Dresden,Dresden,51.05,13.74
Bello,Bello,6.3333,-75.5667
Kolhāpur,Kolhapur,16.6917,74.2333
Wencheng,Wencheng,19.617,110.7551
Lanxi,Lanxi,29.208,119.458
Dangyang,Dangyang,30.821,111.789
Nava Raipur,Nava Raipur,21.161,81.787
Kemerovo,Kemerovo,55.3667,86.0667
Genoa,Genoa,44.4111,8.9328
Herāt,Herat,34.3419,62.2031
Londrina,Londrina,-23.31,-51.1628
Cuautitlán Izcalli,Cuautitlan Izcalli,19.65,-99.25
Uyo,Uyo,5.0333,7.9275
Hamadān,Hamadan,34.8064,48.5161
Luanzhou,Luanzhou,39.741,118.704
Chiclayo,Chiclayo,-6.763,-79.8366
Surakarta,Surakarta,-7.5667,110.8167
Novokuznetsk,Novokuznetsk,53.7667,87.1333
Ajmer,Ajmer,26.4499,74.6399
Kimhae,Kimhae,35.2342,128.8811
Nānded,Nanded,19.15,77.3
Wuhai,Wuhai,39.655,106.794
Palma,Palma,39.5667,2.65
Rustenburg,Rustenburg,-25.6667,27.2428
Amrāvati,Amravati,20.9258,77.7647
Des Moines,Des Moines,41.5725,-93.6105
Lisbon,Lisbon,38.7253,-9.15
Yanji,Yanji,42.9,129.5
Huanghua,Huanghua,38.372,117.33
Al Ḩudaydah,Al Hudaydah,14.8022,42.9511
Anyang,Anyang,37.3833,126.9333
The Hague,The Hague,52.08,4.31
Andijon,Andijon,40.7833,72.3333
Manchester,Manchester,53.479,-2.2452
Nellore,Nellore,14.45,79.99
Poznań,Poznan,52.4083,16.9336
Samarkand,Samarkand,39.6547,66.9758
Xingcheng,Xingcheng,40.6167,120.7333
Wancheng,Wancheng,18.8,110.4
Kaiyuan,Kaiyuan,42.546,124.038
Hannover,Hannover,52.3667,9.7167
Sungai Petani,Sungai Petani,5.65,100.5
Valledupar,Valledupar,10.4833,-73.25
Fengcheng,Fengcheng,40.45,124.0667
Muntinlupa City,Muntinlupa City,14.38,121.05
Ghulja,Ghulja,43.9,81.35
Ixtapaluca,Ixtapaluca,19.3186,-98.8822
Fuding,Fuding,27.2,120.2
Heroica Matamoros,Heroica Matamoros,25.8797,-97.5042
Akron,Akron,41.0798,-81.5219
Mbeya,Mbeya,-8.9,33.45
An Nāşirīyah,An Nasiriyah,31.0439,46.2575
Xiangyang,Xiangyang,34.2995,108.4905
Ibagué,Ibague,4.4333,-75.2333
Al Ḩillah,Al Hillah,32.4775,44.4314
Juiz de Fora,Juiz de Fora,-21.7619,-43.3494
City of Calamba,City of Calamba,14.22,121.17
El Geneina,El Geneina,13.45,22.45
Santa Cruz,Santa Cruz,28.4667,-16.25
Ryazan,Ryazan,54.63,39.7425
Chang’an,Chang'an,29.4768,113.4504
Florianópolis,Florianopolis,-27.6122,-48.4853
Nilüfer,Nilufer,40.2833,28.95
Antwerp,Antwerp,51.2178,4.4003
Kassala,Kassala,15.45,36.4
Aksu,Aksu,41.185,80.2904
Salta,Salta,-24.7833,-65.4167
Dispur,Dispur,26.1397,91.7925
Palm Bay,Palm Bay,27.9631,-80.6593
Naberezhnyye Chelny,Naberezhnyye Chelny,55.6833,52.3167
Gulbarga,Gulbarga,17.329,76.825
Nansana,Nansana,0.3639,32.5286
Mingguang,Mingguang,32.7833,117.9667
Concord,Concord,37.9722,-122.0016
Beira,Beira,-19.8333,34.85
Yazd,Yazd,31.8822,54.3397
Ardabīl,Ardabil,38.2425,48.29
Touba,Touba,14.8667,-15.8833
Bīkaner,Bikaner,28.0181,73.3169
Gaobeidian,Gaobeidian,39.327,115.874
Ndola,Ndola,-12.9689,28.6325
Himeji,Himeji,34.8167,134.6833
Ailan Mubage,Ailan Mubage,43.908,81.2777
Bandar ‘Abbās,Bandar `Abbas,27.1961,56.2878
Skopje,Skopje,41.9961,21.4317
Santa Teresa del Tuy,Santa Teresa del Tuy,10.2333,-66.6639
Port Said,Port Said,31.2625,32.3061
Astrakhan,Astrakhan,46.35,48.035
Kōtō-ku,Koto-ku,35.6667,139.8167
Ciudad Apodaca,Ciudad Apodaca,25.7817,-100.1886
Montería,Monteria,8.75,-75.8833
Nuremberg,Nuremberg,49.4539,11.0775
Kitchener,Kitchener,43.4186,-80.4728
Yucheng,Yucheng,36.934,116.638
Nāgercoil,Nagercoil,8.175,77.4306
Agartala,Agartala,23.8314,91.2869
Soacha,Soacha,4.5872,-74.2214
Buca,Buca,38.35,27.1667
Lyon,Lyon,45.76,4.84
Maipú,Maipu,-33.5167,-70.7667
Arāk,Arak,34.0914,49.6933
Serra,Serra,-20.1289,-40.3078
Tultitlán de Mariano Escobedo,Tultitlan de Mariano Escobedo,19.645,-99.1694
Meknès,Meknes,33.895,-5.5547
Bắc Ninh,Bac Ninh,21.1833,106.05
Anda,Anda,46.424,125.352
Longzhou,Longzhou,30.32,112.23
Al Fayyūm,Al Fayyum,29.3084,30.8441
Utsunomiya,Utsunomiya,36.5551,139.8826
Sheffield,Sheffield,53.3808,-1.4703
Mixco,Mixco,14.6331,-90.6064
Suez,Suez,29.9667,32.55
Heshan,Heshan,22.7667,112.95
Penza,Penza,53.2,45
Loni,Loni,28.75,77.28
Jiaji,Jiaji,19.2431,110.4642
Santa Marta,Santa Marta,11.2419,-74.2053
Ujjain,Ujjain,23.17,75.79
Beining,Beining,41.6,121.8
Abū Ţisht,Abu Tisht,26.1183,32.0953
Maturín,Maturin,9.75,-63.183
Liverpool,Liverpool,53.4094,-2.9785
Macapá,Macapa,0.033,-51.05
Benguela,Benguela,-12.55,13.4167
Yicheng,Yicheng,31.721,112.257
Al Fashn,Al Fashn,28.8227,30.8992
Al ‘Amārah,Al `Amarah,31.8333,47.15
Carrefour,Carrefour,18.5344,-72.4094
Campos,Campos,-21.7539,-41.3239
Cadaado,Cadaado,6.1403,46.6256
Encheng,Encheng,22.1833,112.3
Bhīlwāra,Bhilwara,25.35,74.63
Bibā,Biba,28.9218,30.9844
Wichita,Wichita,37.6895,-97.3443
Leicester,Leicester,52.6344,-1.1319
Newcastle,Newcastle,-27.7464,29.9328
Hải Dương,Hai Duong,20.9397,106.3306
Aden,Aden,12.8,45.0333
Jhānsi,Jhansi,25.4486,78.5696
Matsuyama,Matsuyama,33.8333,132.7667
Ulhāsnagar,Ulhasnagar,19.22,73.15
Nagqu,Nagqu,31.476,92.051
Kitwe,Kitwe,-12.8167,28.2
Vellore,Vellore,12.9165,79.1325
Toulouse,Toulouse,43.6045,1.444
Pohang,Pohang,36.0322,129.365
Mesa,Mesa,33.4015,-111.7178
Lipetsk,Lipetsk,52.6167,39.6
Duisburg,Duisburg,51.4347,6.7625
Jammu,Jammu,32.73,74.87
Ile-Ife,Ile-Ife,7.4667,4.5667
Homyel’,Homyel',52.4453,30.9842
Kirov,Kirov,58.6,49.6833
Mazatlán,Mazatlan,23.2167,-106.4167
Meicheng,Meicheng,30.631,116.581
El Fasher,El Fasher,13.6306,25.35
Farāh,Farah,32.3436,62.1194
Belas,Belas,-8.9983,13.265
Talatona,Talatona,-8.9167,13.1833
Nenjiang,Nenjiang,49.11,125.13
Sukkur,Sukkur,27.7061,68.8483
Hsinchu,Hsinchu,24.8167,120.9833
Harrisburg,Harrisburg,40.2752,-76.8843
Kaliningrad,Kaliningrad,54.7003,20.4531
Hongjiang,Hongjiang,27.191,109.819
Qaraghandy,Qaraghandy,49.8028,73.1056
Lapu-Lapu City,Lapu-Lapu City,10.3127,123.9488
Matsudo,Matsudo,35.7876,139.9032
Johor Bahru,Johor Bahru,1.4556,103.7611
Purnea,Purnea,25.778,87.476
Imus,Imus,14.4297,120.9367
Niterói,Niteroi,-22.8833,-43.1036
Beipiao,Beipiao,41.801,120.771
Dengtacun,Dengtacun,41.4333,123.3333
Zhijiang,Zhijiang,30.426,111.761
Suoluntun,Suoluntun,45.2279,124.8432
Staten Island,Staten Island,40.5834,-74.1496
Chengjiao,Chengjiao,35.3984,114.0649
Lembok,Lembok,-8.565,116.351
Likasi,Likasi,-10.9833,26.7333
Oujda-Angad,Oujda-Angad,34.6867,-1.9114
Duyun,Duyun,26.2594,107.5186
Toledo,Toledo,41.6638,-83.5827
Pindi Bhattian,Pindi Bhattian,31.8958,73.2761
Nyala,Nyala,12.05,24.8833
Bissau,Bissau,11.85,-15.5667
Ichikawa,Ichikawa,35.7219,139.9311
Kota Bharu,Kota Bharu,6.1333,102.25
Yuanping,Yuanping,38.731,112.711
Higashi-ōsaka,Higashi-osaka,34.6794,135.6008
Larkana,Larkana,27.5583,68.2111
‘Ajmān,`Ajman,25.4136,55.4456
Vinh,Vinh,18.6667,105.6667
Ciudad López Mateos,Ciudad Lopez Mateos,19.55,-99.2833
Cheboksary,Cheboksary,56.15,47.2333
Yueqing,Yueqing,28.12,120.96
Belgaum,Belgaum,15.85,74.5
Caerdydd,Caerdydd,51.4833,-3.1833
Edinburgh,Edinburgh,55.9533,-3.1892
Brookhaven,Brookhaven,40.832,-72.9517
Nishinomiya-hama,Nishinomiya-hama,34.7376,135.3416
Karamay,Karamay,45.5799,84.8892
Worcester,Worcester,42.2705,-71.8079
Kawachichō,Kawachicho,34.6794,135.6008
Shahe,Shahe,36.8549,114.5033
Gdańsk,Gdansk,54.3475,18.6453
Sevastopol,Sevastopol,44.605,33.5225
Garoowe,Garoowe,8.4,48.4667
Gaoping,Gaoping,35.798,112.924
Villa Nueva,Villa Nueva,14.5269,-90.5875
Dunhua,Dunhua,43.3667,128.2333
Lianran,Lianran,24.919,102.478
Akhmīm,Akhmim,26.5667,31.75
Şanlıurfa,Sanliurfa,37.1583,38.7917
Az Zarqā’,Az Zarqa',32.0833,36.1
Mālegaon,Malegaon,20.55,74.55
São José do Rio Prêto,Sao Jose do Rio Preto,-20.8081,-49.3811
Valletta,Valletta,35.8983,14.5125
Kolwezi,Kolwezi,-10.7167,25.4667
Jāmnagar,Jamnagar,22.47,70.07
Sylhet,Sylhet,24.9,91.8667
Ananindeua,Ananindeua,-1.3658,-48.3719
East London,East London,-33.0175,27.9047
Berbera,Berbera,10.4356,45.0164
Jiannan,Jiannan,31.3333,104.2
Chiniot,Chiniot,31.7194,72.9842
Asunción,Asuncion,-25.3,-57.6333
Ōita,Oita,33.2333,131.6067
Nangong,Nangong,37.359,115.409
Bārdoli,Bardoli,21.12,73.12
Eldoret,Eldoret,0.5167,35.2833
Bratislava,Bratislava,48.1439,17.1097
Kurashiki,Kurashiki,34.585,133.7722
Al Jubayl,Al Jubayl,27,49.6544
Worthing,Worthing,50.8147,-0.3714
Gaya,Gaya,24.75,85.01
Shekhupura,Shekhupura,31.7111,73.9878
Piura,Piura,-5.2,-80.6333
Vila Velha,Vila Velha,-20.3364,-40.2936
Ar Ruşayfah,Ar Rusayfah,32.0178,36.0464
Jiaojiangcun,Jiaojiangcun,28.6804,121.45
Laohekou,Laohekou,32.359,111.684
San Juan,San Juan,-31.5342,-68.5261
Mykolaiv,Mykolaiv,46.975,31.995
Beian,Beian,48.25,126.5167
Fujin,Fujin,47.25,132.0333
Küçükçekmece,Kucukcekmece,41,28.8
Mazār-e Sharīf,Mazar-e Sharif,36.7,67.1167
Xiaoyi,Xiaoyi,36.0833,111.5167
Balashikha,Balashikha,55.8167,37.9667
Qingzhen,Qingzhen,26.5704,106.4687
Tula,Tula,54.2,37.6167
Ba‘qūbah,Ba`qubah,33.75,44.6333
Katlehong,Katlehong,-26.3333,28.15
Jiangshan,Jiangshan,28.7361,118.625
Buraydah,Buraydah,26.3333,43.9667
Surab,Surab,28.4925,66.2597
Kupang,Kupang,-10.1702,123.6077
Ambattūr,Ambattur,13.1143,80.1548
Nakhon Ratchasima,Nakhon Ratchasima,14.975,102.1
Tân Uyên,Tan Uyen,11.0508,106.7636
Constantine,Constantine,36.35,6.6
Longjiang,Longjiang,27.5819,120.5489
Caxias do Sul,Caxias do Sul,-29.1667,-51.1833
Angeles City,Angeles City,15.1472,120.5847
Kuqa,Kuqa,41.7156,82.9322
Kanazawa,Kanazawa,36.5611,136.6564
Long Beach,Long Beach,33.7977,-118.167
Port St. Lucie,Port St. Lucie,27.2796,-80.3884
Manado Light,Manado Light,1.4931,124.8413
Kartal,Kartal,40.8872,29.19
Cranbourne,Cranbourne,-38.0996,145.2834
Jalgaon,Jalgaon,21.004,75.568
Porto Velho,Porto Velho,-8.7619,-63.9039
Chhatarpur,Chhatarpur,24.55,79.3527
Fukuyama,Fukuyama,34.4858,133.3622
Little Rock,Little Rock,34.7256,-92.3577
Juba,Juba,4.85,31.6
Lanús,Lanus,-34.7,-58.4
Amagasaki,Amagasaki,34.7333,135.4
Kikwit,Kikwit,-5.0386,18.8181
Pyeongtaek,Pyeongtaek,36.9922,127.1128
Reno,Reno,39.5497,-119.8483
Kurnool,Kurnool,15.83,78.05
Spokane,Spokane,47.6671,-117.433
Marikina City,Marikina City,14.65,121.1
Jian’ou,Jian'ou,27.0333,118.3167
Huadian,Huadian,42.972,126.746
Melaka,Melaka,2.1944,102.2486
Manado,Manado,1.4931,124.8413
Manizales,Manizales,5.1,-75.55
Bornova,Bornova,38.4697,27.2211
Minzhu,Minzhu,43.7238,127.3448
Demiryol,Demiryol,37.887,41.132
Erköklü,Erkoklu,37.887,41.132
Kota Kinabalu,Kota Kinabalu,5.975,116.0725
Katsushika-ku,Katsushika-ku,35.7333,139.85
Madison,Madison,43.0822,-89.393
Santiago de Cuba,Santiago de Cuba,20.0217,-75.8294
Udaipur,Udaipur,24.58,73.68
Kursk,Kursk,51.7167,36.1833
Mogi das Cruzes,Mogi das Cruzes,-23.5228,-46.1878
Stavropol,Stavropol,45.05,41.9833
General Trias,General Trias,14.38,120.88
Sirājganj,Sirajganj,24.45,89.75
Boise,Boise,43.6005,-116.2308
Bonita Springs,Bonita Springs,26.3558,-81.7859
Mariupol,Mariupol,47.0958,37.5494
Eslāmshahr,Eslamshahr,35.5317,51.2247
Piraeus,Piraeus,37.943,23.6469
Barcelona,Barcelona,10.1403,-64.6833
Tanbei,Tanbei,35.088,112.951
Zürich,Zurich,47.3744,8.5411
Pingquan,Pingquan,41.0042,118.6848
Ado-Ekiti,Ado-Ekiti,7.6211,5.2214
Baisha,Baisha,29.4896,119.337
Batman,Batman,37.887,41.132
Yongji,Yongji,34.867,110.448
Esenler,Esenler,41.0339,28.8903
Rodriguez,Rodriguez,14.72,121.12
Ensenada,Ensenada,31.8578,-116.6058
Danjiangkou,Danjiangkou,32.5401,111.5131
Chauddagram,Chauddagram,23.2283,91.3133
Kahramanmaraş,Kahramanmaras,37.5833,36.9333
San Nicolás de los Garza,San Nicolas de los Garza,25.75,-100.2833
Taoyuan District,Taoyuan District,24.9913,121.3143
Ndjili,Ndjili,-4.4089,15.3775
Mathura,Mathura,27.4924,77.6737
Pasay City,Pasay City,14.55,121
Ning’an,Ning'an,44.341,129.483
Halifax,Halifax,44.6475,-63.5906
Fujisawa,Fujisawa,35.35,139.4667
Ulan-Ude,Ulan-Ude,51.8333,107.6
Denton,Denton,33.2175,-97.1418
Laval,Laval,45.5833,-73.75
Jinchang,Jinchang,38.5214,102.188
Oakland,Oakland,37.7904,-122.2166
Springfield,Springfield,42.1155,-72.5395
Guangming,Guangming,45.3357,122.7765
Augusta,Augusta,33.3645,-82.0708
Kâğıthane,Kagithane,41.0719,28.9664
Sunch’ŏn,Sunch'on,39.4167,125.9333
Sāngli,Sangli,16.853,74.583
Avcılar,Avcilar,40.9792,28.7214
Jeju,Jeju,33.513,126.523
Zhuangyuan,Zhuangyuan,37.3056,120.829
Davangere,Davangere,14.4666,75.9242
Machida,Machida,35.5542,139.4431
Sanghar,Sanghar,26.0442,68.9536
Al Marāghah,Al Maraghah,26.7,31.6
Bandung,Bandung,-6.912,107.6097
Kissimmee,Kissimmee,28.3041,-81.4169
Calicut,Calicut,11.2588,75.7804
Kenitra,Kenitra,34.25,-6.5833
Windhoek,Windhoek,-22.57,17.0836
Huili Chengguanzhen,Huili Chengguanzhen,26.6333,102.25
Sidi Bouzid,Sidi Bouzid,35.0381,9.4858
Bārāmati,Baramati,18.15,74.58
Ţanţā,Tanta,30.7833,31
Ismailia,Ismailia,30.5833,32.2667
Cusco,Cusco,-13.525,-71.9722
Veracruz,Veracruz,19.1903,-96.1533
Sokoto,Sokoto,13.0622,5.2339
Winston-Salem,Winston-Salem,36.1029,-80.261
Kashiwa,Kashiwa,35.8676,139.9758
Al Bājūr,Al Bajur,30.4333,31.0569
Xunyang,Xunyang,32.8341,109.3653
Malatya,Malatya,38.3486,38.3194
Yan’an Beilu,Yan'an Beilu,44.0144,87.2674
Mothīhāri,Mothihari,26.65,84.9167
Aomori,Aomori,40.8228,140.7469
Akola,Akola,20.7,77
Mandaluyong City,Mandaluyong City,14.58,121.03
Aves,Aves,41.44,-8.3
Sihŭng,Sihung,37.3799,126.8029
Burco,Burco,9.5279,45.5345
Tver,Tver,56.8625,35.9242
Xalapa,Xalapa,19.54,-96.9275
Buenaventura,Buenaventura,3.8772,-77.0267
London,London,42.9836,-81.2497
Piracicaba,Piracicaba,-22.7253,-47.6492
Yogyakarta,Yogyakarta,-7.8014,110.3644
Toyota,Toyota,35.0824,137.1563
Daloa,Daloa,6.8833,-6.45
Agadir,Agadir,30.4333,-9.6
Elazığ,Elazig,38.6744,39.2228
Uijeongbu,Uijeongbu,37.7486,127.0389
Hpa-An,Hpa-An,16.8906,97.6333
Rahimyar Khan,Rahimyar Khan,28.42,70.3
Ugep,Ugep,5.8,8.0833
Hailin,Hailin,44.594,129.38
Mishan,Mishan,45.5298,131.8466
Sarajevo,Sarajevo,43.8564,18.4131
Seremban,Seremban,2.7222,101.9417
Zhengjiatun,Zhengjiatun,43.5183,123.5027
Lecheng,Lecheng,25.1333,113.3333
Campina Grande,Campina Grande,-7.2306,-35.8811
Xicheng,Xicheng,23.3667,103.15
Pencheng,Pencheng,29.676,115.681
Kowloon City,Kowloon City,22.3282,114.1916
Tirana,Tirana,41.3289,19.8178
Kushtia,Kushtia,23.9101,89.1231
El Obeid,El Obeid,13.1833,30.2167
Mauá,Maua,-23.6678,-46.4608
Magnitogorsk,Magnitogorsk,53.3833,59.0333
Da’an,Da'an,45.5,124.2833
Luhansk,Luhansk,48.5678,39.3031
Xingren,Xingren,25.435,105.1862
Takamatsu,Takamatsu,34.35,134.05
Arusha,Arusha,-3.3667,36.6833
Fenyang,Fenyang,37.2616,111.7699
Ajdābiyā,Ajdabiya,30.7556,20.2253
Callao,Callao,-12.0522,-77.1392
Awsīm,Awsim,30.1167,31.1333
Shinagawa-ku,Shinagawa-ku,35.6,139.7333
Paju,Paju,37.8667,126.8
Santa Rosa,Santa Rosa,14.32,121.12
Bettiah,Bettiah,26.8014,84.5028
Jhang City,Jhang City,31.2694,72.3161
Altındağ,Altindag,39.9636,32.9033
Talā,Tala,30.6801,30.9438
Stockton,Stockton,37.9765,-121.3109
Ţalkhā,Talkha,31.0547,31.3756
Boa Vista,Boa Vista,2.8194,-60.6714
Banjul,Banjul,13.4531,-16.5775
Jayapura,Jayapura,-2.533,140.717
Toyama,Toyama,36.6959,137.2137
Sanandaj,Sanandaj,35.3114,46.9961
Khon Kaen,Khon Kaen,16.4333,102.8333
Fangting,Fangting,31.127,104.167
Linghai,Linghai,41.1667,121.35
Shorāpur,Shorapur,16.52,76.76
Koumassi,Koumassi,5.3,-3.95
Betim,Betim,-19.9678,-44.1978
Sochi,Sochi,43.5853,39.7203
Tinnevelly,Tinnevelly,8.7136,77.7567
Pasto,Pasto,1.2078,-77.2772
Syracuse,Syracuse,43.0407,-76.1437
Bellary,Bellary,15.1,76.9167
Bhāgalpur,Bhagalpur,25.25,87
Kisumu,Kisumu,-0.0833,34.7667
Zhangjiakou Shi Xuanhua Qu,Zhangjiakou Shi Xuanhua Qu,40.5944,115.0243
Maringá,Maringa,-23.4,-51.9167
Kocasinan,Kocasinan,38.7333,35.4833
Mataram,Mataram,-8.5833,116.1167
Shashemenē,Shashemene,7.2,38.6
Zaria,Zaria,11.0667,7.7
Kumi,Kumi,36.1195,128.3444
Wanyuan,Wanyuan,31.9833,107.9667
Biñan,Binan,14.33,121.08
Chattanooga,Chattanooga,35.066,-85.2481
Jiexiu,Jiexiu,37.027,111.917
Bağlar,Baglar,37.9167,40.1833
Padiāla,Padiala,30.802,76.593
Đà Lạt,Da Lat,11.9417,108.4383
Sham Shui Po,Sham Shui Po,22.3307,114.1622
Santa Fe,Santa Fe,-31.6333,-60.7
Delhi Cantonment,Delhi Cantonment,28.6,77.1333
Cumaná,Cumana,10.4564,-64.1675
Barura,Barura,23.375,91.0583
Yüreğir,Yuregir,36.9981,35.3439
Nagasaki,Nagasaki,32.7447,129.8736
Mardan,Mardan,34.2012,72.0258
Hat Yai,Hat Yai,7.0167,100.4667
Salt Lake City,Salt Lake City,22.61,88.4
Qazvīn,Qazvin,36.2894,50.0086
Etāwa,Etawa,24.18,78.2
Lancaster,Lancaster,40.042,-76.3012
Sonīpat,Sonipat,28.99,77.022
Jundiaí,Jundiai,-23.1858,-46.8839
Ivanovo,Ivanovo,56.9967,40.9819
Greenville,Greenville,34.8354,-82.3646
Toyonaka,Toyonaka,34.7833,135.4667
Bogra,Bogra,24.85,89.3667
Öskemen,Oskemen,49.9833,82.6167
Gifu,Gifu,35.4232,136.7608
Maungdaw,Maungdaw,20.8167,92.3667
Jiangjiafan,Jiangjiafan,31.0238,111.9709
Durham,Durham,35.9792,-78.9022
Bryansk,Bryansk,53.2333,34.3667
Dera Ghazi Khan,Dera Ghazi Khan,30.0331,70.64
Anápolis,Anapolis,-16.3339,-48.9519
Pensacola,Pensacola,30.4413,-87.1911
Miyazaki,Miyazaki,31.9078,131.4203
Quilon,Quilon,8.8932,76.6141
Mulangodi,Mulangodi,9,76.6167
Munro Turuttu,Munro Turuttu,9,76.6167
Hirakata,Hirakata,34.8167,135.65
Sandakan,Sandakan,5.8333,118.1167
Szczecin,Szczecin,53.4325,14.5481
Brno,Brno,49.1925,16.6083
Surgut,Surgut,61.25,73.4333
Hejin,Hejin,35.596,110.712
Fayetteville,Fayetteville,36.0714,-94.1661
Betsiboka,Betsiboka,-16.95,46.83
Thiès,Thies,14.7833,-16.9167
Arlington,Arlington,32.6998,-97.125
Al Jahrā’,Al Jahra',29.35,47.6833
Kaunas,Kaunas,54.8972,23.8861
Thanh Hóa,Thanh Hoa,19.8075,105.7764
Diadema,Diadema,-23.6861,-46.6106
Lobito,Lobito,-12.3667,13.5333
Saurimo,Saurimo,-9.65,20.4
Yola,Yola,9.23,12.46
Zhugang,Zhugang,28.1358,121.2264
Tāngāil,Tangail,24.2644,89.9181
Nha Trang,Nha Trang,12.245,109.1917
Khayelitsha,Khayelitsha,-34.0403,18.6778
Ad Dīwānīyah,Ad Diwaniyah,31.9892,44.9247
Nnewi,Nnewi,6.0167,6.9167
Hancheng,Hancheng,35.4667,110.4333
San-Pédro,San-Pedro,4.75,-6.6333
Gujrat,Gujrat,32.5739,74.0789
Yokosuka,Yokosuka,35.2813,139.6721
Tieli,Tieli,46.95,128.05
Asyūţ,Asyut,27.1833,31.1667
Gwoza,Gwoza,11.0861,13.6914
Sampaloc,Sampaloc,14.6031,121.0022
Saki,Saki,8.6667,3.4
Bologna,Bologna,44.4939,11.3428
Aqtöbe,Aqtobe,50.2836,57.2297
Cilegon,Cilegon,-6.0027,106.0112
Uvinza,Uvinza,-5.1069,30.3839
Aurora,Aurora,39.7083,-104.7237
Carapicuíba,Carapicuiba,-23.5192,-46.8358
Ḩafr al Bāţin,Hafr al Batin,28.4342,45.9636
Zanjān,Zanjan,36.6789,48.5056
Petrolina,Petrolina,-9.3825,-40.5022
Bairia,Bairia,25.7583,84.1489
Oyo,Oyo,7.85,3.933
Taytay,Taytay,14.5692,121.1325
Kisenzi,Kisenzi,-4.4094,15.3425
Bhātpāra,Bhatpara,22.87,88.41
Kūkatpalli,Kukatpalli,17.4849,78.4138
Manisa,Manisa,38.6144,27.4292
Sirūr,Sirur,18.83,74.38
Tarlac City,Tarlac City,15.4869,120.59
Okazaki,Okazaki,34.9543,137.1744
Lianzhou,Lianzhou,24.781,112.377
Ceel Baraf,Ceel Baraf,3.2073,45.7587
Yidu,Yidu,30.378,111.45
Lingxi,Lingxi,27.5036,120.3975
Ilesa,Ilesa,7.6167,4.7167
Kākināda,Kakinada,16.9661,82.255
Savar,Savar,23.85,90.26
Nuevo Laredo,Nuevo Laredo,27.4861,-99.5069
Bawshar,Bawshar,23.5333,58.3833
Christchurch,Christchurch,-43.531,172.6365
Gusau,Gusau,12.15,6.6667
Zêtang,Zetang,29.238,91.771
Palu,Palu,-0.895,119.8594
Canberra,Canberra,-35.2931,149.1269
Minamisuita,Minamisuita,34.7594,135.5169
Tétouan,Tetouan,35.5667,-5.3667
Malabon,Malabon,14.66,120.96
Neiva,Neiva,2.9345,-75.2809
Novi Sad,Novi Sad,45.2542,19.8425
Huancayo,Huancayo,-12.0667,-75.2167
Celaya,Celaya,20.5222,-100.8122
Ichinomiya,Ichinomiya,35.3039,136.8031
Caruaru,Caruaru,-8.2828,-35.9758
Sintra,Sintra,38.7992,-9.3883
Hatay,Hatay,36.2025,36.1606
Iquitos,Iquitos,-3.75,-73.25
Pānihāti,Panihati,22.69,88.37
Cainta,Cainta,14.57,121.12
Helixi,Helixi,30.6267,118.9861
Mamou,Mamou,10.3833,-12.0833
Manukau City,Manukau City,-37,174.885
Itaquaquecetuba,Itaquaquecetuba,-23.4864,-46.3486
Cantonment,Cantonment,31.5167,74.3833
Rohtak,Rohtak,28.8909,76.5796
Gaziantep,Gaziantep,37.0628,37.3792
Māler Kotla,Maler Kotla,30.5167,75.8833
Bhawana,Bhawana,31.5661,72.6461
Khorramābād,Khorramabad,33.4875,48.3561
Lipa City,Lipa City,13.9411,121.1622
Butuan,Butuan,8.948,125.543
Dikirnis,Dikirnis,31.0883,31.5969
Stoke-on-Trent,Stoke-on-Trent,53,-2.1833
Takasaki,Takasaki,36.3219,139.0033
Malakwal,Malakwal,32.5531,73.2067
Toyohashi,Toyohashi,34.7692,137.3915
Chitungwiza,Chitungwiza,-17.9939,31.0481
Gebze,Gebze,40.8,29.4333
Cibinong,Cibinong,-6.485,106.842
Lengshuijiang,Lengshuijiang,27.686,111.436
Panshi,Panshi,42.95,126.0667
Az Zubayr,Az Zubayr,30.3833,47.7
Oxnard,Oxnard,34.1964,-119.1815
Vinnytsia,Vinnytsia,49.2333,28.4833
Indio,Indio,33.7346,-116.2346
Bharatpur,Bharatpur,27.6833,84.4333
Petare,Petare,10.4833,-66.8167
Nagano,Nagano,36.6486,138.1947
Huichang,Huichang,34.9073,112.7914
Keelung,Keelung,25.1333,121.7333
Bauru,Bauru,-22.315,-49.0608
La Florida,La Florida,-33.5333,-70.5833
Nicolás Romero,Nicolas Romero,19.5833,-99.3667
Jinshan,Jinshan,25.1462,102.0723
Baguio City,Baguio City,16.4119,120.5933
Scranton,Scranton,41.4044,-75.6649
Bochum,Bochum,51.4819,7.2158
Sivas,Sivas,39.75,37.0167
Kolga,Kolga,22.35,82.68
Korba,Korba,22.3458,82.6963
Qardho,Qardho,9.5,49.0833
Rio Branco,Rio Branco,-9.9747,-67.81
Tecámac,Tecamac,19.7131,-98.9683
Alanya,Alanya,36.55,32
Mandaue City,Mandaue City,10.33,123.93
Victorville,Victorville,34.5277,-117.3536
Kocaeli,Kocaeli,40.7625,29.9175
Warri,Warri,5.5167,5.75
Victoria,Victoria,48.4283,-123.3647
Wŏnsan,Wonsan,39.1475,127.4461
Iligan,Iligan,8.23,124.25
Anguo,Anguo,38.418,115.327
K’ebrī Dehar,K'ebri Dehar,6.7333,44.2667
Coventry,Coventry,52.4081,-1.5106
Kayapınar,Kayapinar,37.95,40.1667
Trenton,Trenton,40.2237,-74.7641
Cuenca,Cuenca,-2.8974,-79.0045
Blumenau,Blumenau,-26.9333,-49.05
Nanqiao,Nanqiao,30.9167,121.4547
Florence,Florence,43.7714,11.2542
Buurhakaba,Buurhakaba,2.7833,44.0833
Bengkulu,Bengkulu,-3.7956,102.2592
Malmö,Malmo,55.6058,13.0358
Wudalianchi,Wudalianchi,48.75,126.1667
Shuanghe,Shuanghe,30.3746,106.7903
Pétion-Ville,Petion-Ville,18.5128,-72.2864
Utrecht,Utrecht,52.0908,5.1217
Sīkar,Sikar,27.62,75.15
Umuahia,Umuahia,5.5333,7.4833
Vitsyebsk,Vitsyebsk,55.1917,30.2056
Palmira,Palmira,3.5833,-76.25
Wuppertal,Wuppertal,51.2667,7.1833
Hrodna,Hrodna,53.6667,23.8333
Ash Shuhadā’,Ash Shuhada',30.6039,30.9021
Karūr,Karur,10.9601,78.0766
Ponta Grossa,Ponta Grossa,-25.0994,-50.1583
Sasarām,Sasaram,24.95,84.03
Taraz,Taraz,42.9,71.3667
Cubal,Cubal,-13.0333,14.25
Luena,Luena,-11.7918,19.9062
Karnāl,Karnal,29.686,76.989
Yong’an,Yong'an,25.942,117.365
Konak,Konak,38.4189,27.1285
Minatitlán,Minatitlan,17.9833,-94.55
Linxia Chengguanzhen,Linxia Chengguanzhen,35.6047,103.2422
Brahmapur,Brahmapur,19.315,84.7941
Chānda,Chanda,19.95,79.3
Caucaia,Caucaia,-3.7167,-38.65
Cuito,Cuito,-12.3833,16.9333
Cabuyao,Cabuyao,14.275,121.125
Hongzhai,Hongzhai,34.9857,104.5446
Gedaref,Gedaref,14.0333,35.3833
San Fernando,San Fernando,15.03,120.68
Kawagoe,Kawagoe,35.9251,139.4858
Modesto,Modesto,37.6375,-121.0028
Nizhniy Tagil,Nizhniy Tagil,57.9167,59.9667
Pokhara,Pokhara,28.2083,83.9889
Villahermosa,Villahermosa,17.9892,-92.9281
Van,Van,38.4942,43.38
Mahilyow,Mahilyow,53.9167,30.35
Wakayama,Wakayama,34.2333,135.1667
Osh,Osh,40.53,72.8
Kita-ku,Kita-ku,35.75,139.7333
Gimpo,Gimpo,37.7,126.6
Corrientes,Corrientes,-27.4833,-58.8167
Franca,Franca,-20.5389,-47.4008
Thari Mir Wah,Thari Mir Wah,27.0683,68.6023
Nara,Nara,34.6844,135.805
Vladimir,Vladimir,56.1286,40.4058
Yakeshi,Yakeshi,49.286,120.712
Nam Định,Nam Dinh,20.42,106.1683
Sinŭiju,Sinuiju,40.1,124.4
Oruro,Oruro,-17.9667,-67.1167
Cabimas,Cabimas,10.4,-71.45
Arkhangelsk,Arkhangelsk,64.5333,40.5333
Batangas,Batangas,13.83,121
Ibb,Ibb,13.9667,44.1667
Ahmadnagar,Ahmadnagar,19.08,74.73
Sarai Alamgir,Sarai Alamgir,32.9,73.75
Semey,Semey,50.4333,80.2667
Holguín,Holguin,20.8869,-76.2592
Tungi,Tungi,23.9,90.41
Yingmen,Yingmen,39.9487,97.4395
Sawrān,Sawran,36.6606,44.5508
Chita,Chita,52.05,113.4667
Olinda,Olinda,-8,-34.8833
Praia Grande,Praia Grande,-24.0061,-46.4028
Dāsarhalli,Dasarhalli,13.0465,77.513
Huntsville,Huntsville,34.6981,-86.6412
Shinjuku,Shinjuku,35.7014,139.7097
Alicante,Alicante,38.3453,-0.4831
Cariacica,Cariacica,-20.2639,-40.42
Varna,Varna,43.2167,27.9167
Honolulu,Honolulu,21.3294,-157.846
Antofagasta,Antofagasta,-23.65,-70.4
Ambon,Ambon,-3.7,128.1667
Nice,Nice,43.7034,7.2663
Cascavel,Cascavel,-24.9556,-53.4553
Pamukkale,Pamukkale,37.9167,29.1167
Canoas,Canoas,-29.92,-51.18
Takatsuki,Takatsuki,34.8461,135.6175
António Enes,Antonio Enes,-16.2333,39.9167
Greensboro,Greensboro,36.0956,-79.8271
Anaheim,Anaheim,33.839,-117.8574
Plovdiv,Plovdiv,42.15,24.75
Central Coast,Central Coast,-33.3,151.2
Karşıyaka,Karsiyaka,38.4594,27.1153
Shāhjānpur,Shahjanpur,27.88,79.91
Gwagwalada,Gwagwalada,8.9392,7.0758
Alamādi,Alamadi,13.1097,80.0972
Āvadi,Avadi,13.1147,80.1098
Tanch’ŏn,Tanch'on,40.458,128.911
Khānāpur,Khanapur,15.6394,74.5083
Wad Medani,Wad Medani,14.4,33.5167
Kūstī,Kusti,13.1667,32.6667
Belfast,Belfast,54.5964,-5.93
Hosūr,Hosur,12.7409,77.8253
Cuddapah,Cuddapah,14.47,78.82
Nakano,Nakano,35.7074,139.6638
Ōtsu,Otsu,35.0167,135.85
Maseru,Maseru,-29.31,27.48
Makiivka,Makiivka,48.0556,37.9611
Pavlodar,Pavlodar,52.3,76.95
Chon Buri,Chon Buri,13.3611,100.985
Naga City,Naga City,13.6244,123.1864
Sarıyer,Sariyer,41.1669,29.0572
Brest,Brest,52.1347,23.6569
Meram,Meram,37.8364,32.4383
Gómez Palacio,Gomez Palacio,25.5611,-103.4983
Paulista,Paulista,-7.9408,-34.8728
Rājahmundry,Rajahmundry,16.98,81.78
Koshigaya,Koshigaya,35.8911,139.7909
Vũng Tàu,Vung Tau,10.3833,107.1167
Jeonju,Jeonju,35.8167,127.15
Alwar,Alwar,27.5498,76.6355
Tokorozawa,Tokorozawa,35.7996,139.4686
Sumqayıt,Sumqayit,40.5897,49.6686
Vitória da Conquista,Vitoria da Conquista,-14.8658,-40.8389
Simferopol,Simferopol,44.9519,34.1022
Buôn Ma Thuột,Buon Ma Thuot,12.6667,108.05
Serekunda,Serekunda,13.4333,-16.6667
Islip,Islip,40.7385,-73.1888
Cuernavaca,Cuernavaca,18.9186,-99.2342
Markham,Markham,43.8767,-79.2633
Bielefeld,Bielefeld,52.0211,8.5347
Uberaba,Uberaba,-19.7478,-47.9319
Jitpur,Jitpur,27.6666,85.3333
Bydgoszcz,Bydgoszcz,53.1219,18.0003
Tangdong,Tangdong,25.973,113.231
Chinju,Chinju,35.2,128.0833
Corpus Christi,Corpus Christi,27.7254,-97.3767
Fort Wayne,Fort Wayne,41.0888,-85.1436
Reading,Reading,51.4542,-0.9731
Randburg,Randburg,-26.0936,28.0064
Matadi,Matadi,-5.8167,13.4833
Bonn,Bonn,50.7333,7.1
Iwaki,Iwaki,37.0505,140.8877
Oshawa,Oshawa,43.9,-78.85
Shah Latif Town,Shah Latif Town,24.8806,67.1625
Sambalpur,Sambalpur,21.47,83.97
Fort Collins,Fort Collins,40.5477,-105.0656
Jackson,Jackson,32.3157,-90.2125
Yingzhong,Yingzhong,32.237,119.815
Santo Domingo de los Colorados,Santo Domingo de los Colorados,-0.2542,-79.1719
Uruapan,Uruapan,19.4208,-102.0628
Lublin,Lublin,51.25,22.5667
Licheng,Licheng,24.5,110.4
Tampere,Tampere,61.4981,23.76
Belgorod,Belgorod,50.6,36.6
Muzaffarpur,Muzaffarpur,26.1225,85.3906
Viña del Mar,Vina del Mar,-33.0244,-71.5517
Tepic,Tepic,21.5083,-104.8931
Khipro,Khipro,25.823,69.377
Hangu,Hangu,39.232,117.777
Asan,Asan,36.7833,126.9833
Chak Jhumra,Chak Jhumra,31.5667,73.1833
Myrtle Beach,Myrtle Beach,33.7094,-78.8844
Soledad de Graciano Sánchez,Soledad de Graciano Sanchez,22.1833,-100.9333
Şalālah,Salalah,17.0197,54.0897
Santarém,Santarem,-2.43,-54.72
Yanbu,Yanbu,24.0883,38.0582
Maebashi,Maebashi,36.3895,139.0634
Kaluga,Kaluga,54.55,36.2833
Dumai,Dumai,1.6667,101.45
Beylikdüzü,Beylikduzu,41.0011,28.6419
Gəncə,Ganca,40.6828,46.3606
Asahikawa,Asahikawa,43.7667,142.3667
Kendari,Kendari,-3.9907,122.5086
Wŏnju,Wonju,37.3417,127.9208
Birkat as Sab‘,Birkat as Sab`,30.6338,31.0848
Lafia,Lafia,8.4917,8.5167
Dahūk,Dahuk,36.8667,43
Finglas,Finglas,53.4597,-6.2181
Kāmārhāti,Kamarhati,22.6686,88.3704
Thái Nguyên,Thai Nguyen,21.6,105.85
Bamiantong,Bamiantong,44.9167,130.5167
Nicosia,Nicosia,35.1725,33.365
São Vicente,Sao Vicente,-23.9633,-46.3922
Ribeirão das Neves,Ribeirao das Neves,-19.7669,-44.0869
Guédiawaye,Guediawaye,14.7833,-17.4
Ciudad Obregón,Ciudad Obregon,27.4939,-109.9389
São José dos Pinhais,Sao Jose dos Pinhais,-25.535,-49.2058
Campīernagar,Campiernagar,27.029,83.2668
Phatthaya,Phatthaya,12.9357,100.889
Fayetteville,Fayetteville,35.085,-78.9772
Debrecen,Debrecen,47.53,21.6392
Mirpur Mathelo,Mirpur Mathelo,28.0167,69.5333
Sultanbeyli,Sultanbeyli,40.9683,29.2617
Bijāpur,Bijapur,16.83,75.71
Cabanatuan City,Cabanatuan City,15.4908,120.9678
Tharād,Tharad,24.3926,71.6248
Antioch,Antioch,37.9787,-121.796
Si Racha,Si Racha,13.174,100.93
Salamanca,Salamanca,20.5703,-101.1972
Ratnāgiri,Ratnagiri,16.9944,73.3
Ulanhot,Ulanhot,46.0722,122.0933
Koriyama,Koriyama,37.4004,140.3597
Yunzhong,Yunzhong,39.8279,113.1
Roodepoort,Roodepoort,-26.1625,27.8725
Volzhskiy,Volzhskiy,48.8056,44.7417
Pucallpa,Pucallpa,-8.3833,-74.55
San Pedro,San Pedro,14.3583,121.0583
Pelotas,Pelotas,-31.7719,-52.3425
Kōchi,Kochi,33.5589,133.5314
Rāmpur,Rampur,28.8,79
Kuching,Kuching,1.5575,110.3439
Cotabato,Cotabato,7.22,124.25
Cimanggis,Cimanggis,-6.3645,106.8591
Gonaïves,Gonaives,19.4456,-72.6883
Nazrēt,Nazret,8.5414,39.2689
Kikuyu,Kikuyu,-1.25,36.6667
Córdoba,Cordoba,37.8845,-4.7796
Kluang,Kluang,2.0336,103.3194
Mekele,Mekele,13.4969,39.4769
Binxian,Binxian,35.0542,108.0814
Nantes,Nantes,47.2181,-1.5528
Vaughan,Vaughan,43.8333,-79.5
Kaiyuan,Kaiyuan,23.7111,103.2461
Vitória,Vitoria,-20.2889,-40.3083
Shimoga,Shimoga,13.9333,75.5667
Lansing,Lansing,42.7142,-84.5601
Uíge,Uige,-7.6167,15.05
Hotan,Hotan,37.1167,79.9167
Camagüey,Camaguey,21.3839,-77.9075
Taourirt,Taourirt,34.4169,-2.885
San Salvador de Jujuy,San Salvador de Jujuy,-24.1833,-65.3
Kāshīpur,Kashipur,29.22,78.95
Thủ Dầu Một,Thu Dau Mot,10.9667,106.65
Al Kūt,Al Kut,32.4907,45.8304
Lexington,Lexington,38.0423,-84.4587
Sukabumi,Sukabumi,-6.9181,106.9315
Münster,Munster,51.9625,7.6256
Menongue,Menongue,-14.6556,17.6842
Mobile,Mobile,30.6782,-88.1162
Godē,Gode,5.9527,43.5516
Okene,Okene,7.55,6.2333
Jūnāgadh,Junagadh,21.5222,70.4579
Smolensk,Smolensk,54.7828,32.0453
Guasavito,Guasavito,25.5744,-108.4706
Asan,Asan,36.35,126.9167
Nukus,Nukus,42.4667,59.6
Kaech’ŏn,Kaech'on,39.6986,125.9061
Tehuacán,Tehuacan,18.4617,-97.3928
Coatzacoalcos,Coatzacoalcos,18.15,-94.4333
Muhanga,Muhanga,-2.0845,29.7527
Youngstown,Youngstown,41.0993,-80.6463
Zalantun,Zalantun,48.027,122.708
Saransk,Saransk,54.1833,45.1833
Katsina,Katsina,12.9889,7.6008
Puerto Plata,Puerto Plata,19.8,-70.6833
Henderson,Henderson,36.0133,-115.0381
Gwangmyeongni,Gwangmyeongni,37.476,126.866
Geita,Geita,-2.8714,32.2294
Cherepovets,Cherepovets,59.1167,37.9
Taubaté,Taubate,-23.025,-45.5556
An Nhơn,An Nhon,13.917,109.083
Fontibón,Fontibon,4.6786,-74.1411
Hāpur,Hapur,28.7309,77.7757
Kot Radha Kishan,Kot Radha Kishan,31.1725,74.0997
Barueri,Barueri,-23.5111,-46.8764
San Salvador,San Salvador,13.6989,-89.1914
Savannah,Savannah,32.0286,-81.1821
Naha,Naha,26.2122,127.6792
Bari,Bari,41.1253,16.8667
Xiaoli,Xiaoli,22.6721,113.2509
Trichūr,Trichur,10.5276,76.2144
Mannheim,Mannheim,49.4878,8.4661
Bor,Bor,6.2125,31.5608
Cà Mau,Ca Mau,9.1833,105.15
Saint-Denis,Saint-Denis,-20.8789,55.4481
San Miguelito,San Miguelito,9.033,-79.5
Muar,Muar,2.05,102.5667
Kasur,Kasur,31.1167,74.45
Usme,Usme,4.4464,-74.1522
Barddhamān,Barddhaman,23.2333,87.8667
Poughkeepsie,Poughkeepsie,41.695,-73.9211
Kingston upon Hull,Kingston upon Hull,53.7444,-0.3325
Binangonan,Binangonan,14.4514,121.1919
Temara,Temara,33.9267,-6.9122
Attiecoubé,Attiecoube,5.3333,-4.0333
Jiayuguan,Jiayuguan,39.7732,98.2882
Pasir Gudang,Pasir Gudang,1.5028,103.9356
Vologda,Vologda,59.2167,39.9
Gorgān,Gorgan,36.8378,54.4414
Tanza,Tanza,14.3944,120.8531
Yakutsk,Yakutsk,62.03,129.73
Panvel,Panvel,18.9944,73.1139
Santa Ana,Santa Ana,33.7367,-117.8819
Guarujá,Guaruja,-23.9936,-46.2564
Nizāmābād,Nizamabad,18.672,78.094
Quy Nhơn,Quy Nhon,13.7667,109.2333
Ḩā’il,Ha'il,27.5167,41.6833
Datang,Datang,22.9406,113.9436
Longquan,Longquan,25.9106,114.786
Mitchells Plain,Mitchells Plain,-34.0506,18.6181
Gwangju,Gwangju,37.3667,127.2833
Yokkaichi,Yokkaichi,34.965,136.6244
Chalco,Chalco,19.2647,-98.8975
Shahrīār,Shahriar,35.6722,51.0236
Shahr-e Qods,Shahr-e Qods,35.7097,51.1119
Kurgan,Kurgan,55.4667,65.35
Ciudad del Este,Ciudad del Este,-25.5167,-54.6167
Ann Arbor,Ann Arbor,42.2759,-83.731
St. Paul,St. Paul,44.9478,-93.1039
Karlsruhe,Karlsruhe,49.0092,8.404
Safi,Safi,32.2833,-9.2333
Ciudad Benito Juárez,Ciudad Benito Juarez,25.65,-100.0833
Karawang,Karawang,-6.3125,107.295
Sariwŏn,Sariwon,38.5064,125.7597
Suzano,Suzano,-23.5428,-46.3108
Newark,Newark,40.7245,-74.1725
Nghi Sơn,Nghi Son,19.417,105.75
Parbhani,Parbhani,19.27,76.78
Puerto Princesa,Puerto Princesa,9.75,118.75
Hisar,Hisar,29.15,75.7
Vladikavkaz,Vladikavkaz,43.04,44.6775
Windsor,Windsor,42.2833,-83
Kasugai,Kasugai,35.2475,136.9722
Ciudad Santa Catarina,Ciudad Santa Catarina,25.6833,-100.45
Puerto La Cruz,Puerto La Cruz,10.2,-64.6333
Fatehpur,Fatehpur,27.98,74.95
Ciudad Victoria,Ciudad Victoria,23.7389,-99.1431
Playa del Carmen,Playa del Carmen,20.6281,-87.0755
Yeşilyurt,Yesilyurt,38.2961,38.2489
Yonghetun,Yonghetun,39.9131,116.6458
Irvine,Irvine,33.6772,-117.7738
Kāshān,Kashan,33.9825,51.4325
Minna,Minna,9.6139,6.5569
Sumbawanga,Sumbawanga,-7.9667,31.6167
Orël,Orel,52.9686,36.0694
Akita,Akita,39.72,140.1026
Kurume,Kurume,33.3192,130.5083
Az Zaqāzīq,Az Zaqaziq,30.5667,31.5
Podolsk,Podolsk,55.4311,37.5456
Palmas,Palmas,-10.1844,-48.3336
Montpellier,Montpellier,43.6119,3.8772
Vila Nova de Gaia,Vila Nova de Gaia,41.1333,-8.6167
Bahía Blanca,Bahia Blanca,-38.7167,-62.2667
Al Waqf,Al Waqf,26.0808,32.4245
San Bernardo,San Bernardo,-33.5833,-70.7
San Juan del Río,San Juan del Rio,20.3833,-99.9833
Armenia,Armenia,4.53,-75.68
Augsburg,Augsburg,48.3689,10.8978
Qianzhou,Qianzhou,28.276,109.712
Popayán,Popayan,2.4542,-76.6092
Al Qunfudhah,Al Qunfudhah,19.1264,41.0789
Yakou,Yakou,33.295,113.5269
Newcastle,Newcastle,54.978,-1.6102
Oulgaret,Oulgaret,11.957,79.7737
Āwasa,Awasa,7.05,38.4667
Ingrāj Bāzār,Ingraj Bazar,25.0119,88.1433
Oaxaca,Oaxaca,17.0606,-96.7253
Binjai,Binjai,3.5986,98.4803
Barr Eliâs,Barr Elias,33.775,35.9
Khairpur Tamewah,Khairpur Tamewah,29.58,72.2328
Sucre,Sucre,-19.0475,-65.26
Al ‘Ajamī,Al `Ajami,31.0959,29.7604
Al Maţarīyah,Al Matariyah,31.1833,32.0333
Bada Barabīl,Bada Barabil,22.12,85.4
Ash Shāmīyah,Ash Shamiyah,31.9636,44.5989
Oyster Bay,Oyster Bay,40.7846,-73.514
Ar Raqqah,Ar Raqqah,35.95,39.01
Chakwal,Chakwal,32.9303,72.8556
Ōakashichō,Oakashicho,34.65,135
Afyonkarahisar,Afyonkarahisar,38.7578,30.5386
Dod Ballāpur,Dod Ballapur,13.292,77.543
Camaçari,Camacari,-12.6978,-38.3239
Ciudad General Escobedo,Ciudad General Escobedo,25.7933,-100.1583
Catania,Catania,37.5,15.0903
Jember,Jember,-8.1727,113.6873
Al Mubarraz,Al Mubarraz,25.3833,49.6
Pekalongan,Pekalongan,-6.8833,109.6667
Los Mochis,Los Mochis,25.7835,-108.9937
Toshima,Toshima,35.7333,139.7167
Pachuca,Pachuca,20.1,-98.75
Yangsan,Yangsan,35.3333,129.0333
Valladolid,Valladolid,41.6528,-4.7236
Tampico,Tampico,22.2553,-97.8686
Bihār,Bihar,25.197,85.518
Espoo,Espoo,60.2056,24.6556
Malabo,Malabo,3.7456,8.7744
Pilar,Pilar,-34.45,-58.9167
Valparaíso,Valparaiso,-33.0461,-71.6197
Cirebon,Cirebon,-6.7071,108.5574
Tagum,Tagum,7.4478,125.8078
Santa Rosa,Santa Rosa,38.4458,-122.7067
Darbhanga,Darbhanga,26.17,85.9
Comilla,Comilla,23.45,91.2
Battalgazi,Battalgazi,38.4228,38.3656
Sorong,Sorong,-0.8667,131.25
Shubrākhīt,Shubrakhit,31.0275,30.7128
Floridablanca,Floridablanca,7.2167,-73.0667
Silang,Silang,14.2306,120.975
Eloy Alfaro,Eloy Alfaro,-2.1733,-79.8311
Pondokaren,Pondokaren,-6.2811,106.7019
Sikandarābād,Sikandarabad,28.4512,77.6955
Kafr Şaqr,Kafr Saqr,30.7964,31.6261
Vila Teixeira da Silva,Vila Teixeira da Silva,-12.1958,15.8556
Pānīpat,Panipat,29.3875,76.97
Rangpur,Rangpur,25.75,89.2444
Białystok,Bialystok,53.1353,23.1456
Canton,Canton,40.8078,-81.3676
Asheville,Asheville,35.5707,-82.5537
Flint,Flint,43.0236,-83.6921
Vigo,Vigo,42.2314,-8.7124
Coacalco,Coacalco,19.6333,-99.0931
Āīzawl,Aizawl,23.7272,92.7178
Bāli,Bali,22.65,88.34
Bradford,Bradford,53.8,-1.75
Mabalacat,Mabalacat,15.22,120.58
Dexing,Dexing,28.9306,117.5947
Winter Haven,Winter Haven,28.0118,-81.7014
Graz,Graz,47.0708,15.4386
Palni,Palni,10.45,77.5161
Resistencia,Resistencia,-27.4514,-58.9867
Groznyy,Groznyy,43.3125,45.6986
Chimbote,Chimbote,-9.0745,-78.5936
Strasbourg,Strasbourg,48.5833,7.7458
Bergen,Bergen,60.3894,5.33
Gatineau,Gatineau,45.4833,-75.65
Surajgarha,Surajgarha,25.25,86.23
Tegal,Tegal,-6.8675,109.1375
Anchorage,Anchorage,61.1508,-149.1091
Batna,Batna,35.55,6.1667
Aarhus,Aarhus,56.1572,10.2107
Morioka,Morioka,39.7021,141.1545
Lincoln,Lincoln,40.8099,-96.6784
Hulin,Hulin,45.7667,132.9333
Hong’an,Hong'an,47.21,123.61
Karīmnagar,Karimnagar,18.4386,79.1288
Santa Maria,Santa Maria,14.82,120.96
Tambov,Tambov,52.7231,41.4539
Dewās,Dewas,22.96,76.06
Güngören,Gungoren,41.0225,28.8717
Magway,Magway,20.15,94.95
Farg‘ona,Farg`ona,40.3864,71.7864
Concord,Concord,35.3933,-80.6369
Hugli,Hugli,22.9,88.39
Chunchura,Chunchura,22.9,88.39
Sétif,Setif,36.19,5.41
Sonpur,Sonpur,25.7,85.18
Meguro,Meguro,35.6333,139.6833
Machala,Machala,-3.2667,-79.9667
San Lorenzo,San Lorenzo,-25.34,-57.52
Jersey City,Jersey City,40.7184,-74.0686
Ichalkaranji,Ichalkaranji,16.7,74.47
Punto Fijo,Punto Fijo,11.7167,-70.1833
Várzea Grande,Varzea Grande,-15.65,-56.1333
Tirupati,Tirupati,13.65,79.42
Pathein,Pathein,16.7842,94.7333
Chernihiv,Chernihiv,51.4939,31.2947
Sincelejo,Sincelejo,9.295,-75.3961
Cluj-Napoca,Cluj-Napoca,46.7667,23.5833
Springfield,Springfield,37.1943,-93.2916
Sekondi,Sekondi,4.9433,-1.704
Tacna,Tacna,-18.0147,-70.2489
Tin Shui Wai,Tin Shui Wai,22.46,114.002
Juazeiro do Norte,Juazeiro do Norte,-7.2,-39.3333
Al Qurnah,Al Qurnah,31.0158,47.4306
Korhogo,Korhogo,9.4167,-5.6167
Bhatinda,Bhatinda,30.23,74.9519
Katowice,Katowice,50.2625,19.0217
Jālna,Jalna,19.8333,75.8833
Foz do Iguaçu,Foz do Iguacu,-25.54,-54.5875
Bolton,Bolton,53.578,-2.429
San Pablo,San Pablo,14.07,121.325
Huixquilucan,Huixquilucan,19.3611,-99.3508
Plano,Plano,33.0502,-96.7486
Qillīn,Qillin,31.0464,30.8546
Croix-des-Bouquets,Croix-des-Bouquets,18.5761,-72.2269
San Juan Sacatepéquez,San Juan Sacatepequez,14.7189,-90.6442
Ljubljana,Ljubljana,46.0514,14.5061
Fukushima,Fukushima,37.7608,140.4747
Bago,Bago,17.3333,96.4833
Delmas,Delmas,18.55,-72.3
Fuquan,Fuquan,26.6863,107.5204
Ibaraki,Ibaraki,34.8164,135.5686
Shreveport,Shreveport,32.4653,-93.7955
Ostrava,Ostrava,49.8356,18.2925
Poltava,Poltava,49.5894,34.5514
Wiesbaden,Wiesbaden,50.0825,8.24
Satna,Satna,24.6005,80.8322
Sannai,Sannai,24.1582,80.751
Huozhou,Huozhou,36.569,111.7551
Temuco,Temuco,-38.7333,-72.6667
Ica,Ica,-14.0667,-75.7333
Tongchuanshi,Tongchuanshi,35.08,109.03
Jining,Jining,41.03,113.08
Chuncheon,Chuncheon,37.8667,127.7333
Sakarya,Sakarya,40.7833,30.4
İnegöl,Inegol,40.0806,29.5097
Kaura Namoda,Kaura Namoda,12.6,6.5897
Davenport,Davenport,41.5565,-90.6053
Malārd,Malard,35.6806,50.9783
Lubbock,Lubbock,33.5657,-101.8879
Lakeland,Lakeland,28.0557,-81.9545
Sterlitamak,Sterlitamak,53.6333,55.95
Bukhara,Bukhara,39.7667,64.4231
Santa Ana,Santa Ana,13.995,-89.5561
Sumbe,Sumbe,-11.2053,13.8417
Mingaora,Mingaora,34.7717,72.36
Çorlu,Corlu,41.15,27.8
Kherson,Kherson,46.6425,32.625
Lucena,Lucena,13.93,121.62
Petrópolis,Petropolis,-22.505,-43.1789
Mamuju,Mamuju,-2.6833,118.9
Mau,Mau,25.9417,83.5611
Nizhnevartovsk,Nizhnevartovsk,60.95,76.6
Long Xuyên,Long Xuyen,10.3736,105.4458
Petrozavodsk,Petrozavodsk,61.7833,34.3333
Gyeongsan,Gyeongsan,35.8167,128.7333
Bārāsat,Barasat,22.72,88.48
South Bend,South Bend,41.6767,-86.2696
Pematangsiantar,Pematangsiantar,2.96,99.06
Maastricht,Maastricht,50.85,5.6833
Việt Trì,Viet Tri,21.3,105.4333
Sunderland,Sunderland,54.906,-1.381
Kostroma,Kostroma,57.7681,40.9269
Gagnoa,Gagnoa,6.1333,-5.9333
Xingsha,Xingsha,28.2573,113.1234
Dire Dawa,Dire Dawa,9.6,41.8667
Lashkar Gāh,Lashkar Gah,31.5831,64.3692
Itagüí,Itagui,6.1667,-75.6167
Juliaca,Juliaca,-15.4833,-70.1333
Chula Vista,Chula Vista,32.6281,-117.0144
Posadas,Posadas,-27.3667,-55.9
Farrukhābād,Farrukhabad,27.39,79.581
Chandler,Chandler,33.2825,-111.8514
Kunsan,Kunsan,35.9833,126.7167
Yeosu,Yeosu,34.7333,127.7333
Qarshi,Qarshi,38.8667,65.8
Saugor,Saugor,23.83,78.71
Khmelnytskyi,Khmelnytskyi,49.4167,27
Nassau,Nassau,25.0781,-77.3386
Ratlām,Ratlam,23.334,75.037
Crato,Crato,-7.4639,-63.04
Yeosu,Yeosu,34.7607,127.6622
Shaowu,Shaowu,27.3403,117.4925
Pasarkemis,Pasarkemis,-6.1703,106.53
Cotia,Cotia,-23.6042,-46.9194
Taboão da Serra,Taboao da Serra,-23.5328,-46.7994
San Mateo,San Mateo,14.6969,121.1219
Novorossiysk,Novorossiysk,44.7167,37.7833
Tsu,Tsu,34.7184,136.5057
Rockford,Rockford,42.2596,-89.064
Imperatriz,Imperatriz,-5.5333,-47.4833
Los Alcarrizos,Los Alcarrizos,18.5167,-70.0167
Soubré,Soubre,5.7833,-6.6
Reading,Reading,40.34,-75.9267
Székesfehérvár,Szekesfehervar,47.1956,18.4089
Majene,Majene,-3.5403,118.9707
Sumida,Sumida,35.7,139.8167
Chopda,Chopda,21.25,75.3
Gabela,Gabela,-10.85,14.3667
Dayr az Zawr,Dayr az Zawr,35.3333,40.15
Iaşi,Iasi,47.1622,27.5889
Santa Maria,Santa Maria,-29.6833,-53.8
Sartā,Sarta,36.4491,53.3234
Eugene,Eugene,44.0564,-123.1174
Iksan,Iksan,35.9439,126.9544
Mỹ Tho,My Tho,10.35,106.35
Nguru,Nguru,12.8792,10.4525
Arnavutköy,Arnavutkoy,41.1856,28.7406
Derby,Derby,52.9247,-1.478
Mito,Mito,36.3658,140.4712
Kunp’o,Kunp'o,37.35,126.95
Gombe,Gombe,10.2904,11.17
Bijiao,Bijiao,22.9253,113.2067
Cherkasy,Cherkasy,49.4444,32.0597
Bayat,Bayat,40.5455,34.957
Handwāra,Handwara,34.3997,74.2817
Kunduz,Kunduz,36.7286,68.8681
Drug,Drug,21.19,81.28
Wilmington,Wilmington,34.2099,-77.8866
Mönchengladbach,Monchengladbach,51.2,6.4333
Gijón,Gijon,43.5333,-5.7
Brāhmanbāria,Brahmanbaria,23.9656,91.108
Santa Clarita,Santa Clarita,34.4175,-118.4964
Thái Bình,Thai Binh,20.4461,106.3422
Ichihara,Ichihara,35.4981,140.1154
Tarija,Tarija,-21.5333,-64.7333
Shibīn al Kawm,Shibin al Kawm,30.5586,31.01
Plymouth,Plymouth,50.3714,-4.1422
Aswān,Aswan,24.0889,32.8997
Bimo,Bimo,4.3137,18.3065
Murmansk,Murmansk,68.9706,33.075
Gilbert,Gilbert,33.31,-111.7463
Maradi,Maradi,13.4833,7.1
Xiangkhoang,Xiangkhoang,19.4167,103.5
Anantapur,Anantapur,14.68,77.599
Adıyaman,Adiyaman,37.7639,38.2778
Kütahya,Kutahya,39.4167,29.9833
Yoshkar-Ola,Yoshkar-Ola,56.65,47.8833
Marabá,Maraba,-5.35,-49.1167
Salem,Salem,44.9233,-123.0244
Saskatoon,Saskatoon,52.1333,-106.6833
Sumaré,Sumare,-22.8219,-47.2669
Killeen,Killeen,31.0753,-97.7297
Nagaoka,Nagaoka,37.4462,138.8512
Djelfa,Djelfa,34.6667,3.25
Sumy,Sumy,50.9119,34.8028
Khwazakhela,Khwazakhela,34.9333,72.4667
Chernivtsi,Chernivtsi,48.3,25.9333
Suncheon,Suncheon,34.9506,127.4875
Kibaha,Kibaha,-6.7667,38.9167
Nalchik,Nalchik,43.4833,43.6167
Sfax,Sfax,34.74,10.76
Gent,Gent,51.0536,3.7253
Gravataí,Gravatai,-29.9333,-50.9833
Antsirabe,Antsirabe,-19.8667,47.0333
Feni,Feni,23.0183,91.41
Engels,Engels,51.5017,46.1222
Imphāl,Imphal,24.8074,93.9384
Taunggyi,Taunggyi,20.7836,97.0354
Nogales,Nogales,31.3,-110.9333
Ed Daein,Ed Daein,11.4608,26.1283
Dezfūl,Dezful,32.3786,48.4144
Mossoró,Mossoro,-5.1878,-37.3439
Round Lake Beach,Round Lake Beach,42.3791,-88.0811
Potosí,Potosi,-19.5892,-65.7533
Osmaniye,Osmaniye,37.075,36.25
Columbus,Columbus,32.51,-84.8771
Itajaí,Itajai,-26.9,-48.6667
North Las Vegas,North Las Vegas,36.2883,-115.0888
Tāluqān,Taluqan,36.7167,69.5167
Constanţa,Constanta,44.1667,28.6333
Luque,Luque,-25.27,-57.4872
Yao,Yao,34.6269,135.601
Jalālābād,Jalalabad,34.4342,70.4478
Nawabshah,Nawabshah,26.2442,68.41
Talisay,Talisay,10.25,123.83
Gelsenkirchen,Gelsenkirchen,51.5167,7.1
Jagdalpur,Jagdalpur,19.18,81.92
Tchibota,Tchibota,-4.1794,11.3731
Kafr ad Dawwār,Kafr ad Dawwar,31.1311,30.13
Quilmes,Quilmes,-34.7167,-58.2667
Wollongong,Wollongong,-34.4331,150.8831
Zhytomyr,Zhytomyr,50.25,28.6667
Volta Redonda,Volta Redonda,-22.5228,-44.1039
Fukui,Fukui,36.0641,136.2196
Arrah,Arrah,25.5514,84.6603
Malolos,Malolos,14.8433,120.8114
Heroica Nogales,Heroica Nogales,31.3186,-110.9458
Bariadi,Bariadi,-2.7919,33.9894
Hong,Hong,10.2317,12.9303
Oumé,Oume,6.3833,-5.4167
Fuchū,Fuchu,35.6689,139.4776
Minato,Minato,35.6581,139.7514
Boksburg,Boksburg,-26.2125,28.2625
Olongapo,Olongapo,14.83,120.28
Quảng Ngãi,Quang Ngai,15.1167,108.8
Al Ḩamzah,Al Hamzah,31.7339,45.0086
Kennewick,Kennewick,46.1978,-119.1732
Qo‘qon,Qo`qon,40.5286,70.9425
Kotri,Kotri,25.374,68.3013
St. Petersburg,St. Petersburg,27.7931,-82.6652
Mişrātah,Misratah,32.3775,15.092
Aydın,Aydin,37.8481,27.8453
Singa,Singa,13.15,33.9333
Manta,Manta,-0.95,-80.7162
Tallahassee,Tallahassee,30.4551,-84.2527
Kakogawachō-honmachi,Kakogawacho-honmachi,34.75,134.8333
Isparta,Isparta,37.7647,30.5567
Siverek,Siverek,37.75,39.3167
Ndulo,Ndulo,-11.4833,15.8333
Antalya,Antalya,36.8874,30.7075
Huayin,Huayin,34.5833,110.1
Hiratsuka,Hiratsuka,35.3167,139.35
Rāniyah,Raniyah,36.255,44.8836
Annaba,Annaba,36.9,7.7667
Governador Valadares,Governador Valadares,-18.85,-41.9333
Khimki,Khimki,55.8892,37.445
Ondo,Ondo,7.0833,4.8333
Etāwah,Etawah,26.77,79.03
Siddhirganj,Siddhirganj,23.6833,90.5167
Horlivka,Horlivka,48.3,38.05
Indaiatuba,Indaiatuba,-23.0903,-47.2181
Bloemfontein,Bloemfontein,-29.1167,26.2167
Ấp Đa Lợi,Ap Da Loi,11.9333,108.4667
Türkmenabat,Turkmenabat,39.0833,63.5667
Malkājgiri,Malkajgiri,17.4519,78.5362
Vitoria-Gasteiz,Vitoria-Gasteiz,42.85,-2.6833
Germiston,Germiston,-26.2178,28.1672
Nonthaburi,Nonthaburi,13.8667,100.5167
Verona,Verona,45.4386,10.9928
Tuzla,Tuzla,40.8161,29.3006
Westminster,Westminster,51.4947,-0.1353
Laredo,Laredo,27.5625,-99.4874
Kuala Terengganu,Kuala Terengganu,5.3292,103.1361
San Pedro Carchá,San Pedro Carcha,15.4667,-90.3
Moçâmedes,Mocamedes,-15.1953,12.1508
Irving,Irving,32.8583,-96.9702
Turmero,Turmero,10.2283,-67.4725
Tokushima,Tokushima,34.0667,134.55
São Carlos,Sao Carlos,-22,-47.8908
Longueuil,Longueuil,45.5333,-73.5167
Marilao,Marilao,14.7581,120.9481
Tuni,Tuni,17.35,82.55
Ash Shaţrah,Ash Shatrah,31.4097,46.1717
Sab‘ al Būr,Sab` al Bur,33.4644,44.1536
Fort-de-France,Fort-de-France,14.6,-61.0667
Mawlamyine,Mawlamyine,16.4847,97.6258
Peoria,Peoria,40.752,-89.6154
Godomè,Godome,6.3667,2.35
Rāpar,Rapar,23.57,70.63
Samāstipur,Samastipur,25.8629,85.7811
Aksaray,Aksaray,38.3742,34.0289
Shinozaki,Shinozaki,33.9578,130.9414
Parnamirim,Parnamirim,-5.9167,-35.25
Kızıltepe,Kiziltepe,37.1939,40.5861
Jhenida,Jhenida,23.5417,89.1833
Turku,Turku,60.45,22.2667
Bharatpur,Bharatpur,27.22,77.48
Aachen,Aachen,50.7756,6.0836
Begusarai,Begusarai,25.42,86.13
Kediri,Kediri,-7.8111,112.0047
Kanggye,Kanggye,40.9667,126.6
Chiayi,Chiayi,23.48,120.4497
Çekme,Cekme,41.0369,29.1786
Hakodate,Hakodate,41.7686,140.7289
Tacloban,Tacloban,11.24,125
Jūnāgarh,Junagarh,19.8599,82.9338
Braunschweig,Braunschweig,52.2667,10.5167
İskenderun,Iskenderun,36.5817,36.165
Pécs,Pecs,46.0711,18.2331
Sōka,Soka,35.8254,139.8053
Nedumana,Nedumana,8.9139,76.6889
Higüey,Higuey,18.6167,-68.7
Los Teques,Los Teques,10.3333,-67.0417
Montgomery,Montgomery,32.3482,-86.2668
Jinshi,Jinshi,29.5,111.908
Wolverhampton,Wolverhampton,52.5833,-2.1333
Pointe-à-Pitre,Pointe-a-Pitre,16.2411,-61.5331
Al Fallūjah,Al Fallujah,33.35,43.7833
Timişoara,Timisoara,45.7597,21.23
Bata,Bata,1.865,9.77
Rạch Giá,Rach Gia,10.0167,105.0833
Companiganj,Companiganj,22.875,91.2833
Venice,Venice,45.4375,12.3358
Taganrog,Taganrog,47.2167,38.9167
Bābol,Babol,36.5475,52.6783
São José,Sao Jose,-27.6,-48.6167
La Paz,La Paz,24.1422,-110.3108
Al Bayḑā’,Al Bayda',32.7664,21.7417
Natogyi,Natogyi,21.4167,95.65
Kurmuk,Kurmuk,10.55,34.2833
Râs el-Barr,Ras el-Barr,31.5125,31.8256
Kalār,Kalar,34.6292,45.3222
Bojnūrd,Bojnurd,37.4722,57.3289
Türkistan,Turkistan,43.3019,68.2692
New Delhi,New Delhi,28.6139,77.2089
Las Condes,Las Condes,-33.4117,-70.55
Goma,Goma,-1.6794,29.2336
Rishon LeẔiyyon,Rishon LeZiyyon,31.95,34.8
Komsomol’sk-na-Amure,Komsomol'sk-na-Amure,50.5667,137
Campeche,Campeche,19.85,-90.5306
Manzhouli,Manzhouli,49.598,117.379
Tiruvottiyūr,Tiruvottiyur,13.16,80.3
Palangkaraya,Palangkaraya,-2.21,113.92
Chesapeake,Chesapeake,36.6778,-76.3023
Burnaby,Burnaby,49.2667,-122.9667
Rāmnagar,Ramnagar,27.17,84.32
Limeira,Limeira,-22.565,-47.4019
Carmen,Carmen,18.6431,-91.8306
Gāndhīdhām,Gandhidham,23.08,70.13
Banikoara,Banikoara,11.3,2.4333
Chemnitz,Chemnitz,50.8333,12.9167
Salūmbar,Salumbar,24.08,74.02
Kyŏngju,Kyongju,35.85,129.2167
Mérida,Merida,8.48,-71.19
Glendale,Glendale,33.5791,-112.2311
Sibu,Sibu,2.2878,111.8308
Qā’em Shahr,Qa'em Shahr,36.4636,52.8581
Paraná,Parana,-31.7331,-60.5297
Büyükçekmece,Buyukcekmece,41.02,28.5775
Kiel,Kiel,54.3233,10.1394
Sahiwal,Sahiwal,30.6611,73.1083
A Coruña,A Coruna,43.365,-8.41
Navotas,Navotas,14.6667,120.9417
Santa Clara,Santa Clara,22.4069,-79.9649
Mehrabpur,Mehrabpur,27.0994,68.4208
Yamagata,Yamagata,38.2554,140.3396
York,York,39.9651,-76.7315
Khomeynī Shahr,Khomeyni Shahr,32.6803,51.5361
Beykoz,Beykoz,41.1342,29.0922
Tsukuba-kenkyūgakuen-toshi,Tsukuba-kenkyugakuen-toshi,36.0835,140.0764
Oruro,Oruro,-17.9833,-67.15
Macaé,Macae,-22.3708,-41.7869
Győr,Gyor,47.6842,17.6344
Al ‘Āshir min Ramaḑān,Al `Ashir min Ramadan,30.3065,31.7415
Mahajanga,Mahajanga,-15.7167,46.3167
Mount Lavinia,Mount Lavinia,6.8731,79.8758
Northampton,Northampton,52.2304,-0.8938
Krishnarājpur,Krishnarajpur,13.012,77.6951
Hafizabad,Hafizabad,32.0714,73.6878
Nelamangala,Nelamangala,13.102,77.374
Beichengqu,Beichengqu,40.437,113.11
Abertawe,Abertawe,51.6167,-3.95
Syktyvkar,Syktyvkar,61.6667,50.8167
Rivne,Rivne,50.6192,26.2519
Gdynia,Gdynia,54.5175,18.54
Nashua,Nashua,42.7491,-71.491
Barnsley,Barnsley,53.5547,-1.4791
Taiping,Taiping,4.85,100.7333
Rondonópolis,Rondonopolis,-16.4667,-54.6333
São José de Ribamar,Sao Jose de Ribamar,-2.55,-44.05
Puducherry,Puducherry,11.9167,79.8167
Merlo,Merlo,-34.6653,-58.7275
Portoviejo,Portoviejo,-1.0561,-80.4553
Damanhūr,Damanhur,31.0361,30.4694
Garland,Garland,32.91,-96.6304
Kabinda,Kabinda,-6.13,24.48
Jessore,Jessore,23.1704,89.2
Kesbewa,Kesbewa,6.7953,79.9386
Tripoli,Tripoli,34.4367,35.8344
Fuji,Fuji,35.1613,138.6763
Eindhoven,Eindhoven,51.4333,5.4833
Sabzevār,Sabzevar,36.2125,57.6764
Dourados,Dourados,-22.2208,-54.8058
Bahir Dar,Bahir Dar,11.6,37.3833
Yoshiichō-shimobaru,Yoshiicho-shimobaru,33.18,129.715
Myitkyina,Myitkyina,25.3833,97.4
Rāmgundam,Ramgundam,18.7639,79.475
Pālanpur,Palanpur,24.1722,72.4333
Tuy Hòa,Tuy Hoa,13.0819,109.295
Sasebo,Sasebo,33.18,129.715
Sapele,Sapele,5.9,5.6667
Birāṭnagar,Biratnagar,26.4542,87.2797
Pandharpur,Pandharpur,17.6778,75.3278
Qyzylorda,Qyzylorda,44.85,65.5167
St. Catharines,St. Catharines,43.1833,-79.2333
Chigasaki,Chigasaki,35.3333,139.4
Araraquara,Araraquara,-21.7939,-48.1758
Kahama,Kahama,-3.8375,32.6
Halle,Halle,51.4828,11.9697
Americana,Americana,-22.7386,-47.3311
Zhangping,Zhangping,25.2902,117.42
Man,Man,7.4,-7.55
Sete Lagoas,Sete Lagoas,-19.4658,-44.2469
Bānchpār,Banchpar,23.2,90.8
Haeju,Haeju,38.0333,125.7167
Soyapango,Soyapango,13.7333,-89.15
Masaurhi Buzurg,Masaurhi Buzurg,25.35,85.02
Baruta,Baruta,10.4322,-66.8739
Düzce,Duzce,40.8417,31.1583
Marília,Marilia,-22.2139,-49.9458
Katihār,Katihar,25.53,87.58
Scottsdale,Scottsdale,33.6872,-111.8651
Tarapoto,Tarapoto,-6.4833,-76.3667
Atushi,Atushi,39.7162,76.1684
Abī al Khaşīb,Abi al Khasib,30.4411,47.9725
Jacareí,Jacarei,-23.3053,-45.9658
Anju,Anju,39.62,125.66
Bunkyō-ku,Bunkyo-ku,35.7167,139.75
Byatarayanpur,Byatarayanpur,13.0659,77.5922
Ahor,Ahor,25.367,72.783
Diaobingshancun,Diaobingshancun,42.4667,123.5667
Magdeburg,Magdeburg,52.1317,11.6392
Yato,Yato,35.4833,139.45
Matsumoto,Matsumoto,36.238,137.972
Szeged,Szeged,46.255,20.145
Chimoio,Chimoio,-19.1167,33.45
Kasulu,Kasulu,-4.58,30.1
Elche,Elche,38.2669,-0.6983
Tarsus,Tarsus,36.9165,34.8951
Ivano-Frankivsk,Ivano-Frankivsk,48.9228,24.7106
Chōfugaoka,Chofugaoka,35.6506,139.5407
González Catán,Gonzalez Catan,-34.7667,-58.6167
Nyíregyháza,Nyiregyhaza,47.9531,21.7271
Wuyishan,Wuyishan,27.7564,118.0353
Shenmu,Shenmu,38.827,110.499
Tuticorin,Tuticorin,8.7642,78.1348
As Sīb,As Sib,23.6703,58.1891
Gangānagar,Ganganagar,29.92,73.88
Braşov,Brasov,45.6667,25.6167
Lafayette,Lafayette,30.2082,-92.0325
Āmol,Amol,36.4703,52.3467
Stavanger,Stavanger,58.97,5.7314
Sandnes,Sandnes,58.8517,5.7361
Nizhnekamsk,Nizhnekamsk,55.6333,51.8167
Monclova,Monclova,26.9103,-101.4222
Chishui,Chishui,28.5904,105.6975
Djougou,Djougou,9.7,1.6667
Norfolk,Norfolk,36.8945,-76.259
Mirpur Khas,Mirpur Khas,25.525,69.0158
Lille,Lille,50.6278,3.0583
P’yŏngsŏng-si,P'yongsong-si,39.2605,125.8618
P’yŏng-dong,P'yong-dong,39.1919,125.8178
Centurion,Centurion,-25.8603,28.1894
North Hempstead,North Hempstead,40.7912,-73.6688
Tinkhang,Tinkhang,27.23,95.17
Rewa,Rewa,24.53,81.3
Pākdasht,Pakdasht,35.485,51.6794
Kajang,Kajang,2.9931,101.7889
Petaẖ Tiqwa,Petah Tiqwa,32.0889,34.8864
Abhā,Abha,18.2169,42.5053
Freiburg im Breisgau,Freiburg im Breisgau,47.995,7.85
Al Minyā,Al Minya,28.1194,30.7444
Iseyin,Iseyin,7.9667,3.6
Central District,Central District,22.2867,114.155
Gaborone,Gaborone,-24.6581,25.9122
Arlington,Arlington,38.8786,-77.1011
Juazeiro,Juazeiro,-9.4306,-40.5028
Zinder,Zinder,13.8053,8.9883
Bole,Bole,44.8539,82.0514
Shakhty,Shakhty,47.7,40.2333
Ganda,Ganda,-13.0167,14.6333
Uluberiya,Uluberiya,22.47,88.11
Bulandshahr,Bulandshahr,28.4069,77.8497
Banda Aceh,Banda Aceh,5.55,95.3175
Najafābād,Najafabad,32.6447,51.3603
Shibuya-ku,Shibuya-ku,35.6594,139.7006
Bayamo,Bayamo,20.3817,-76.6428
Limassol,Limassol,34.6747,33.0442
Borūjerd,Borujerd,33.9111,48.7522
Ibb,Ibb,13.9759,44.1709
García,Garcia,25.8167,-100.5833
Arapiraca,Arapiraca,-9.7519,-36.6608
Longquan,Longquan,28.0667,119.1333
Miri,Miri,4.3925,113.9861
Maracanaú,Maracanau,-3.8667,-38.6333
Oral,Oral,51.2225,51.3725
Craiova,Craiova,44.3333,23.8167
Formosa,Formosa,-26.1833,-58.1833
Appleton,Appleton,44.278,-88.3892
Chauhanpatti,Chauhanpatti,25.15,82.6
Bo,Bo,7.9564,-11.74
Mambéré,Mambere,5.5,15.5
Damboa,Damboa,11.15,12.75
Groningen,Groningen,53.2189,6.5675
Ipswich,Ipswich,-27.6144,152.7608
Teluk Intan,Teluk Intan,4.0333,101.0167
San Cristóbal,San Cristobal,18.4167,-70.1056
Cannanore,Cannanore,11.8745,75.3704
Rāichūr,Raichur,16.2,77.37
Okara,Okara,30.8092,73.4536
Saga,Saga,33.2667,130.3
Saidpur,Saidpur,25.8004,89
Lin’an,Lin'an,23.6279,102.8014
Colombo,Colombo,-25.2919,-49.2239
Machilīpatnam,Machilipatnam,16.17,81.13
Beni,Beni,0.5,29.4667
Nazipur,Nazipur,25.0415,88.7605
Purwokerto,Purwokerto,-7.4278,109.2417
Bratsk,Bratsk,56.1167,101.6
Biyalā,Biyala,31.1747,31.2204
Madan,Madan,30.3469,48.2825
Rancagua,Rancagua,-34.1667,-70.75
Phú Yên,Phu Yen,21.4156,105.8739
Neuquén,Neuquen,-38.9525,-68.0642
Divinópolis,Divinopolis,-20.1389,-44.8839
Qarchak,Qarchak,35.4267,51.5842
Ormoc,Ormoc,11.0106,124.6075
Fresnillo,Fresnillo,23.175,-102.8675
Dzerzhinsk,Dzerzhinsk,56.2333,43.45
Granada,Granada,37.1781,-3.6008
Sơn Tây,Son Tay,21.1333,105.5
Singkawang,Singkawang,0.9,108.9833
Zégoua,Zegoua,10.4875,-5.6536
Kulai,Kulai,1.6667,103.6
Barishal,Barishal,22.7,90.3667
Pāli,Pali,25.77,73.33
Songadh,Songadh,21.167,73.564
Noginsk,Noginsk,64.4833,91.2333
Gadda Madiral,Gadda Madiral,18.7519,79.5133
Orsk,Orsk,51.2,58.5667
Ordu,Ordu,40.9833,37.8833
Košice,Kosice,48.7167,21.25
Kasukabe,Kasukabe,35.9753,139.7523
Miriālgūda,Mirialguda,16.8667,79.5833
Aguadilla,Aguadilla,18.4382,-67.1537
Envigado,Envigado,6.1667,-75.5667
Haridwār,Haridwar,29.945,78.163
Rock Hill,Rock Hill,34.9415,-81.0241
Fremont,Fremont,37.5265,-121.9843
Vizianagaram,Vizianagaram,18.1159,83.406
Cobán,Coban,15.4833,-90.3667
Khénifra,Khenifra,32.9394,-5.6675
Guantánamo,Guantanamo,20.1367,-75.2139
Krefeld,Krefeld,51.3333,6.5667
Şabyā,Sabya,17.1489,42.6258
Fargo,Fargo,46.8651,-96.8292
Rāisinghnagar,Raisinghnagar,29.5342,73.4477
Uşak,Usak,38.6778,29.4042
Pāthardi,Pathardi,19.17,75.18
Magé,Mage,-22.6528,-43.0408
Gulfport,Gulfport,30.4274,-89.0704
Neya,Neya,34.7667,135.6333
Mel Pālaiyam,Mel Palaiyam,8.7,77.7069
Novo Hamburgo,Novo Hamburgo,-29.6778,-51.1308
Ipatinga,Ipatinga,-19.5,-42.5333
Sāqultah,Saqultah,26.65,31.6667
Choloma,Choloma,15.6333,-88
Kropyvnytskyi,Kropyvnytskyi,48.5,32.2667
Khatīma,Khatima,28.92,79.97
Daşoguz,Dasoguz,41.8333,59.9667
Khanewal,Khanewal,30.3,71.9333
Petlād,Petlad,22.47,72.8
Kamianske,Kamianske,48.5167,34.6167
Bremerton,Bremerton,47.5436,-122.7121
Ageoshimo,Ageoshimo,35.9774,139.5932
Changhua,Changhua,24.0667,120.5333
Regina,Regina,50.4547,-104.6067
Badalona,Badalona,41.4489,2.2461
Dianbu,Dianbu,31.8883,117.4608
Kolpino,Kolpino,59.7333,30.6
Rio Verde,Rio Verde,-17.745,-50.9167
Meycauayan,Meycauayan,14.73,120.95
Presidente Prudente,Presidente Prudente,-22.1256,-51.3889
Green Bay,Green Bay,44.5148,-87.9895
Varāmīn,Varamin,35.3508,51.6358
Padangsidempuan,Padangsidempuan,1.3786,99.2722
Uacu Cungo,Uacu Cungo,-11.3583,15.1194
Enterprise,Enterprise,36.0091,-115.2278
Hunchun,Hunchun,42.863,130.366
Tarrasa,Tarrasa,41.57,2.013
Ternopil,Ternopil,49.5667,25.6
Kimberley,Kimberley,-28.7383,24.7639
Nadiād,Nadiad,22.69,72.86
Toamasina,Toamasina,-18.155,49.41
Rennes,Rennes,48.1147,-1.6794
Mutare,Mutare,-18.9667,32.6333
Cikupa,Cikupa,-6.4947,106.6511
Ratodero,Ratodero,27.8,68.2833
Chuādānga,Chuadanga,23.644,88.8556
Carlos Manuel de Céspedes,Carlos Manuel de Cespedes,21.5767,-78.2775
Blagoveshchensk,Blagoveshchensk,50.25,127.5333
Nong’an,Nong'an,44.4347,125.175
Ōta,Ota,36.2911,139.3754
Itaboraí,Itaborai,-22.7439,-42.8589
Puerto Vallarta,Puerto Vallarta,20.6458,-105.2222
Capiatá,Capiata,-25.35,-57.42
Viamão,Viamao,-30.0808,-51.0228
Takarazuka,Takarazuka,34.8114,135.3406
Chapecó,Chapeco,-27.0958,-52.6178
Banfield,Banfield,-34.75,-58.3833
Toluca,Toluca,19.2925,-99.6569
Atsugichō,Atsugicho,35.4333,139.3667
